City,Lat,Lng,Temp,Max Temp,Min Temp,Humidity,Cloudiness,Wind Speed,Country,Date
Geraldton,-28.7667,114.6,81.0,81.0,74.0,32,0,8.23,AU,1634968588
Cherskiy,68.75,161.3,-7.0,-7.0,-7.0,100,99,1.44,RU,1634968614
Tuatapere,-46.1333,167.6833,60.0,60.0,60.0,69,98,1.48,NZ,1634968615
Sitka,57.0531,-135.33,44.0,44.0,44.0,91,100,3.14,US,1634968615
Sobolevo,54.4299,31.8996,42.0,42.0,42.0,79,94,7.08,RU,1634968615
Assiut,27.181,31.1837,65.0,65.0,65.0,66,3,6.02,EG,1634968386
Curuguaty,-24.4694,-55.6945,69.0,69.0,69.0,76,16,2.19,PY,1634968616
East London,-33.0153,27.9116,65.0,65.0,65.0,68,0,2.06,ZA,1634968616
Barrow,71.2906,-156.7887,28.0,28.0,28.0,93,99,4.3,US,1634968617
Grindavik,63.8424,-22.4338,45.0,45.0,45.0,93,90,4.12,IS,1634968618
Mar del Plata,-38.0023,-57.5575,55.0,55.0,52.0,90,90,0.45,AR,1634968620
Pevek,69.7008,170.3133,12.0,12.0,12.0,93,100,2.51,RU,1634968621
Manokwari,-0.8667,134.0833,83.0,83.0,83.0,78,44,5.14,ID,1634968621
Marsá Maţrūḩ,31.3525,27.2453,66.0,66.0,66.0,59,40,2.57,EG,1634968622
Puerto Ayora,-0.7393,-90.3518,69.0,69.0,69.0,87,54,3.33,EC,1634968622
Rikitea,-23.1203,-134.9692,74.0,74.0,74.0,85,2,9.08,PF,1634968622
Bredasdorp,-34.5322,20.0403,55.0,60.0,55.0,88,87,5.66,ZA,1634968589
Kushiro,42.975,144.3747,49.0,49.0,49.0,66,40,2.57,JP,1634968623
Pyrzyce,53.1462,14.8926,43.0,44.0,41.0,87,47,7.61,PL,1634968623
Saskylakh,71.9167,114.0833,-9.0,-9.0,-9.0,100,95,1.89,RU,1634968624
Bengkulu,-3.8004,102.2655,84.0,84.0,84.0,71,97,3.03,ID,1634968624
Jamestown,42.097,-79.2353,45.0,45.0,42.0,92,100,0.89,US,1634968625
Bluff,-46.6,168.3333,54.0,54.0,54.0,77,98,5.86,NZ,1634968625
La Santisima Trinidad,-14.8333,-64.9,84.0,84.0,84.0,58,15,3.63,BO,1634968625
Kochubey,44.3861,46.5825,60.0,60.0,60.0,52,0,1.56,RU,1634968626
Butaritari,3.0707,172.7902,82.0,82.0,82.0,74,92,7.17,KI,1634968626
Mandera,3.9366,41.867,83.0,83.0,83.0,56,7,3.4,KE,1634968627
Busselton,-33.65,115.3333,75.0,75.0,72.0,52,7,3.03,AU,1634968627
Dikson,73.5069,80.5464,11.0,11.0,11.0,88,100,7.01,RU,1634968628
Samaná,19.2056,-69.3369,78.0,78.0,78.0,84,41,3.87,DO,1634968628
Avarua,-21.2078,-159.775,70.0,70.0,70.0,73,20,3.09,CK,1634968355
Vanimo,-2.6741,141.3028,84.0,84.0,84.0,66,93,2.7,PG,1634968628
Kapaa,22.0752,-159.319,74.0,79.0,73.0,91,6,5.25,US,1634968629
Jiuquan,39.7432,98.5174,57.0,57.0,57.0,24,0,4.25,CN,1634968629
Punta Arenas,-53.15,-70.9167,38.0,38.0,38.0,75,0,10.8,CL,1634968386
Caxito,-8.5785,13.6643,78.0,78.0,78.0,81,96,0.82,AO,1634968630
Atuona,-9.8,-139.0333,78.0,78.0,78.0,79,27,8.47,PF,1634968630
Souillac,-20.5167,57.5167,77.0,78.0,77.0,78,75,6.69,MU,1634968630
Araripina,-7.5761,-40.4983,74.0,74.0,74.0,69,88,1.45,BR,1634968565
Shimoda,34.6667,138.95,61.0,67.0,61.0,67,73,1.93,JP,1634968631
Mataura,-46.1927,168.8643,64.0,64.0,64.0,59,96,1.38,NZ,1634968576
Mahébourg,-20.4081,57.7,77.0,78.0,77.0,78,75,6.69,MU,1634968631
Raton,36.9034,-104.4391,45.0,45.0,45.0,34,79,2.79,US,1634968632
Hermanus,-34.4187,19.2345,61.0,61.0,57.0,75,86,9.33,ZA,1634968632
Hithadhoo,-0.6,73.0833,83.0,83.0,83.0,73,100,5.27,MV,1634968575
Oranienburg,52.75,13.2333,41.0,43.0,38.0,92,12,0.45,DE,1634968633
Kahului,20.8947,-156.47,78.0,78.0,73.0,87,13,3.13,US,1634968631
Tuktoyaktuk,69.4541,-133.0374,34.0,34.0,34.0,100,90,5.66,CA,1634968633
Castro,-24.7911,-50.0119,52.0,52.0,52.0,78,0,2.0,BR,1634968633
Ushuaia,-54.8,-68.3,35.0,35.0,35.0,93,90,13.89,AR,1634968634
Port Macquarie,-31.4333,152.9167,81.0,82.0,81.0,88,30,3.38,AU,1634968634
Makakilo City,21.3469,-158.0858,76.0,77.0,74.0,68,3,6.58,US,1634968635
Pontianak,-0.0333,109.3333,88.0,88.0,88.0,66,40,1.54,ID,1634968635
Sola,-13.8833,167.55,81.0,81.0,81.0,75,83,6.29,VU,1634968675
Karabash,55.4808,60.2157,47.0,47.0,47.0,79,97,7.11,RU,1634968676
Río Hato,8.3833,-80.1667,75.0,80.0,75.0,89,63,3.22,PA,1634968676
Mlimba,-8.8,35.8167,83.0,83.0,83.0,53,96,2.99,TZ,1634968676
Los Llanos de Aridane,28.6585,-17.9182,65.0,65.0,64.0,79,75,0.89,ES,1634968677
Kaya,13.0917,-1.0844,80.0,80.0,80.0,56,72,2.0,BF,1634968677
Zanjān,36.6736,48.4787,51.0,51.0,51.0,43,0,7.2,IR,1634968677
Cape Town,-33.9258,18.4232,59.0,61.0,56.0,75,75,2.68,ZA,1634968678
Palmer,42.1584,-72.3287,50.0,53.0,44.0,61,89,1.8,US,1634968678
Raudeberg,61.9875,5.1352,40.0,41.0,34.0,53,93,0.93,NO,1634968678
Yulara,-25.2406,130.9889,84.0,84.0,84.0,20,0,7.2,AU,1634968679
Clifton,40.8584,-74.1638,53.0,58.0,46.0,79,100,0.45,US,1634968483
Saint-Augustin,51.226,-58.6502,43.0,43.0,43.0,71,100,7.81,CA,1634968679
Tiksi,71.6872,128.8694,4.0,4.0,4.0,95,100,0.9,RU,1634968679
Vila Velha,-20.3297,-40.2925,68.0,68.0,68.0,94,75,2.06,BR,1634968680
Chokurdakh,70.6333,147.9167,-10.0,-10.0,-10.0,98,100,1.28,RU,1634968600
Prado,-17.3411,-39.2208,72.0,72.0,72.0,92,96,2.7,BR,1634968680
Nouakchott,18.0858,-15.9785,70.0,70.0,70.0,39,91,4.24,MR,1634968681
George Town,5.4112,100.3354,90.0,90.0,90.0,66,20,2.06,MY,1634968436
Port-Gentil,-0.7193,8.7815,79.0,79.0,79.0,89,75,3.6,GA,1634968682
Kamiiso,41.8167,140.65,52.0,52.0,52.0,50,40,4.12,JP,1634968682
Nemuro,43.3236,145.575,49.0,49.0,49.0,77,100,3.8,JP,1634968682
Koslan,63.4564,48.8989,31.0,31.0,31.0,96,100,2.45,RU,1634968683
Slave Lake,55.2834,-114.769,43.0,43.0,43.0,75,90,5.66,CA,1634968683
Hong Kong,22.2855,114.1577,72.0,75.0,66.0,75,54,0.45,HK,1634968644
Albany,42.6001,-73.9662,39.0,43.0,34.0,83,40,1.79,US,1634968671
Camacha,33.0833,-16.3333,62.0,65.0,62.0,82,40,3.6,PT,1634968684
Bandundu Province,-3.3167,17.3667,74.0,74.0,74.0,93,95,0.77,CD,1634968684
Shenkursk,62.1091,42.896,38.0,38.0,38.0,97,100,3.14,RU,1634968635
Chilca,-12.5211,-76.7372,62.0,64.0,61.0,88,60,2.43,PE,1634968685
Khatanga,71.9667,102.5,12.0,12.0,12.0,86,98,6.78,RU,1634968610
Rome,43.2128,-75.4557,35.0,39.0,33.0,95,95,0.45,US,1634968685
Taiyuan,37.8694,112.5603,61.0,61.0,61.0,29,0,2.0,CN,1634968686
San Javier,37.8063,-0.8374,60.0,64.0,56.0,73,0,1.79,ES,1634968686
Broome,42.2506,-75.833,38.0,41.0,34.0,79,88,0.89,US,1634968686
São Filipe,14.8961,-24.4956,79.0,79.0,79.0,70,0,2.35,CV,1634968687
Tokmak,47.2514,35.7058,57.0,57.0,57.0,75,87,3.9,UA,1634968687
Beloha,-25.1667,45.05,76.0,76.0,76.0,57,97,3.84,MG,1634968616
Lebu,-37.6167,-73.65,50.0,50.0,50.0,72,83,5.6,CL,1634968688
San Jose,37.3394,-121.895,55.0,59.0,52.0,82,100,0.45,US,1634968443
San Patricio,28.017,-97.5169,77.0,80.0,73.0,83,94,3.35,US,1634968688
Asău,46.4333,26.4,49.0,54.0,47.0,82,100,1.71,RO,1634968688
Saint-Pierre,-21.3393,55.4781,80.0,83.0,78.0,75,0,3.09,RE,1634968689
Provideniya,64.3833,-173.3,26.0,26.0,26.0,76,100,3.62,RU,1634968689
Zhigansk,66.7697,123.3711,17.0,17.0,17.0,96,85,2.71,RU,1634968690
Westport,41.1415,-73.3579,54.0,59.0,48.0,69,96,0.89,US,1634968690
Boralday,43.3578,76.8594,44.0,44.0,44.0,65,20,4.0,KZ,1634968690
Elizabeth City,36.2946,-76.2511,61.0,65.0,55.0,96,75,3.09,US,1634968691
Dembī Dolo,8.5333,34.8,65.0,65.0,65.0,61,14,2.0,ET,1634968691
Cangzhou,38.3167,116.8667,61.0,61.0,61.0,29,40,1.47,CN,1634968692
Guane,22.2025,-84.0875,73.0,73.0,73.0,85,87,2.29,CU,1634968692
Hobart,-42.8794,147.3294,53.0,53.0,51.0,93,90,2.57,AU,1634968692
Almaznyy,48.0448,40.045,52.0,52.0,52.0,73,87,4.86,RU,1634968736
Eyl,7.9803,49.8164,82.0,82.0,82.0,63,19,2.61,SO,1634968737
Zyryanovsk,49.7386,84.2719,43.0,43.0,43.0,40,23,2.46,KZ,1634968737
Kasane,-17.8167,25.15,85.0,85.0,85.0,32,4,1.75,BW,1634968737
Bonavista,48.6499,-53.1147,46.0,52.0,46.0,91,100,4.78,CA,1634968738
Lagoa,39.05,-27.9833,67.0,67.0,67.0,72,52,5.96,PT,1634968734
Faya,18.3851,42.4509,63.0,63.0,63.0,21,66,4.48,SA,1634968738
Hay River,60.8156,-115.7999,43.0,43.0,41.0,61,40,5.14,CA,1634968667
Vaini,-21.2,-175.2,75.0,75.0,75.0,83,20,5.14,TO,1634968594
Hilo,19.7297,-155.09,72.0,75.0,71.0,92,90,2.06,US,1634968532
Carutapera,-1.195,-46.02,76.0,76.0,76.0,94,98,2.25,BR,1634968704
Natal,-5.795,-35.2094,79.0,79.0,79.0,89,20,3.09,BR,1634968453
Lüderitz,-26.6481,15.1594,58.0,58.0,58.0,71,25,3.36,NA,1634968739
Ngunut,-8.1058,112.0159,88.0,88.0,88.0,57,100,4.91,ID,1634968740
Nieuw Nickerie,5.95,-56.9833,78.0,78.0,78.0,87,95,5.36,SR,1634968740
Roebourne,-20.7833,117.1333,94.0,94.0,94.0,23,6,6.65,AU,1634968740
Coquimbo,-29.9533,-71.3436,53.0,53.0,53.0,87,0,1.03,CL,1634968619
Batagay,67.6333,134.6333,9.0,9.0,9.0,97,93,0.62,RU,1634968741
Clyde River,70.4692,-68.5914,22.0,22.0,22.0,91,100,2.29,CA,1634968741
Lavrentiya,65.5833,-171.0,27.0,27.0,27.0,83,100,5.19,RU,1634968742
Banda Aceh,5.5577,95.3222,83.0,83.0,83.0,72,89,2.18,ID,1634968742
Zimovniki,47.1483,42.4633,56.0,56.0,56.0,73,50,5.2,RU,1634968742
Bytów,54.1706,17.4919,40.0,43.0,40.0,80,64,6.64,PL,1634968212
Beipiao,41.7919,120.7792,59.0,59.0,59.0,26,0,3.63,CN,1634968743
Mishan,45.55,131.8833,56.0,56.0,56.0,31,1,6.92,CN,1634968743
Władysławowo,54.7909,18.4009,43.0,44.0,41.0,76,38,10.79,PL,1634968744
Umluj,25.0213,37.2685,81.0,81.0,81.0,49,0,5.87,SA,1634968744
Kempele,64.9131,25.5034,27.0,27.0,25.0,80,0,4.63,FI,1634968744
San Cristobal,7.7669,-72.225,68.0,68.0,68.0,94,22,0.71,VE,1634968745
Savannakhet,16.566,104.751,82.0,82.0,82.0,47,75,2.06,LA,1634968745
Ṭikāpur,28.5,81.1333,81.0,81.0,81.0,62,0,2.05,NP,1634968746
Cabo San Lucas,22.8909,-109.9124,77.0,79.0,72.0,79,2,0.89,MX,1634968746
Yellowknife,62.456,-114.3525,41.0,42.0,38.0,71,20,8.75,CA,1634968746
Iqaluit,63.7506,-68.5145,26.0,26.0,26.0,86,90,2.24,CA,1634968747
Vostok,46.4856,135.8833,42.0,42.0,42.0,64,14,3.31,RU,1634968747
Baiyin,36.5583,104.2081,53.0,53.0,53.0,50,43,1.97,CN,1634968748
Lamu,-2.2717,40.902,81.0,81.0,81.0,68,64,4.29,KE,1634968748
Manama,26.2154,50.5832,84.0,84.0,79.0,57,0,5.14,BH,1634968749
Tasiilaq,65.6145,-37.6368,28.0,28.0,28.0,93,100,4.12,GL,1634968749
Port Alfred,-33.5906,26.891,73.0,73.0,73.0,42,57,7.02,ZA,1634968577
Cidreira,-30.1811,-50.2056,64.0,64.0,64.0,93,1,5.21,BR,1634968749
Mount Gambier,-37.8333,140.7667,61.0,61.0,61.0,55,75,6.17,AU,1634968750
Ribeira Grande,38.5167,-28.7,68.0,68.0,68.0,73,30,5.59,PT,1634968750
Bandarbeyla,9.4942,50.8122,81.0,81.0,81.0,66,48,2.99,SO,1634968751
Port Hardy,50.6996,-127.4199,47.0,50.0,47.0,87,90,3.09,CA,1634968665
Denton,33.2001,-97.1336,70.0,74.0,66.0,77,0,3.52,US,1634968643
Malé,4.1748,73.5089,86.0,86.0,86.0,74,40,7.2,MV,1634968674
Nikolskoye,59.7035,30.7861,39.0,40.0,39.0,90,99,3.87,RU,1634968752
Talcahuano,-36.7167,-73.1167,48.0,48.0,48.0,76,0,5.66,CL,1634968752
Mitú,1.1983,-70.1733,72.0,72.0,72.0,96,53,1.15,CO,1634968752
Aloleng,16.1307,119.7824,87.0,87.0,87.0,67,70,3.04,PH,1634968753
Khani,41.9563,42.9566,44.0,44.0,44.0,44,0,0.47,GE,1634968753
Saint-Philippe,-21.3585,55.7679,80.0,82.0,78.0,80,41,5.29,RE,1634968753
Atambua,-9.1061,124.8925,86.0,86.0,86.0,59,25,2.96,ID,1634968754
Talara,-4.5772,-81.2719,67.0,67.0,67.0,84,95,6.63,PE,1634968797
Creel,27.75,-107.6333,49.0,49.0,49.0,55,0,0.86,MX,1634968798
Bumba,2.1833,22.4667,72.0,72.0,72.0,95,78,0.88,CD,1634968798
Nome,64.5011,-165.4064,31.0,31.0,31.0,72,100,4.2,US,1634968664
Batamshinskiy,50.5594,58.2747,46.0,46.0,46.0,69,30,10.46,KZ,1634968798
Pisco,-13.7,-76.2167,61.0,61.0,58.0,82,0,2.06,PE,1634968786
Tocopilla,-22.092,-70.1979,59.0,59.0,59.0,72,19,1.8,CL,1634968313
Tilichiki,60.4667,166.1,4.0,4.0,4.0,87,23,2.81,RU,1634968799
Amantea,39.1332,16.0746,59.0,62.0,59.0,71,58,2.54,IT,1634968799
Hualmay,-11.0964,-77.6139,62.0,62.0,62.0,86,40,4.11,PE,1634968800
Kavieng,-2.5744,150.7967,84.0,84.0,84.0,73,39,5.56,PG,1634968800
Vila Franca do Campo,37.7167,-25.4333,65.0,65.0,65.0,85,74,2.63,PT,1634968801
Bathsheba,13.2167,-59.5167,82.0,82.0,82.0,69,100,8.76,BB,1634968802
Arraial do Cabo,-22.9661,-42.0278,68.0,68.0,68.0,85,1,5.91,BR,1634968767
Berlevåg,70.8578,29.0864,35.0,35.0,35.0,58,100,7.33,NO,1634968804
Codrington,-38.2667,141.9667,55.0,55.0,55.0,69,71,7.06,AU,1634968805
Gravdal,68.1214,13.5031,37.0,37.0,37.0,56,47,1.48,NO,1634968806
Waverley,-25.7023,28.2591,66.0,75.0,59.0,42,0,2.22,ZA,1634968807
Misratah,32.3754,15.0925,75.0,75.0,75.0,54,67,5.77,LY,1634968810
Ajnāla,31.8425,74.7589,79.0,79.0,79.0,65,40,5.66,IN,1634968810
Airai,-8.9266,125.4092,75.0,75.0,75.0,56,44,0.67,TL,1634968811
Qaanaaq,77.484,-69.3632,-1.0,-1.0,-1.0,64,0,3.69,GL,1634968812
Volga,57.9516,38.3879,42.0,42.0,42.0,73,83,5.84,RU,1634968813
Kokopo,-4.352,152.2633,85.0,85.0,85.0,64,76,5.58,PG,1634968815
Labuhan,-6.8844,112.2051,90.0,90.0,90.0,54,71,5.36,ID,1634968815
Arrondissement de Rambouillet,48.5833,1.9167,45.0,48.0,42.0,73,100,1.24,FR,1634968815
Sawākin,19.1059,37.3321,84.0,84.0,84.0,67,24,3.49,SD,1634968816
Coyhaique,-45.5752,-72.0662,40.0,40.0,40.0,97,91,4.6,CL,1634968816
Okha,53.5739,142.9478,40.0,40.0,40.0,73,63,4.88,RU,1634968817
Alofi,-19.0595,-169.9187,75.0,75.0,75.0,64,91,7.71,NU,1634968817
Klaksvík,62.2266,-6.589,49.0,49.0,49.0,96,100,13.74,FO,1634968818
Görele,41.0308,39.0031,64.0,64.0,64.0,46,0,0.25,TR,1634968818
Harper,4.375,-7.7169,76.0,76.0,76.0,89,74,2.32,LR,1634968819
Goundam,16.4145,-3.6708,81.0,81.0,81.0,23,83,1.87,ML,1634968819
Kruisfontein,-34.0033,24.7314,66.0,66.0,66.0,46,100,4.92,ZA,1634968655
Kitob,39.0843,66.8332,52.0,52.0,52.0,26,0,1.83,UZ,1634968820
Kaeo,-35.1,173.7833,61.0,61.0,61.0,98,100,7.95,NZ,1634968820
Chui,-33.6971,-53.4616,55.0,55.0,55.0,77,100,0.36,UY,1634968602
Heraclea,37.5133,34.0467,57.0,57.0,57.0,24,0,0.5,TR,1634968820
Avera,33.194,-82.5271,53.0,58.0,51.0,80,18,2.99,US,1634968821
Chara,56.9064,118.2631,41.0,41.0,41.0,54,86,0.35,RU,1634968821
Erzin,36.9559,36.2,60.0,60.0,60.0,31,0,0.91,TR,1634968822
Bethel,41.3712,-73.414,50.0,57.0,45.0,73,99,2.21,US,1634968822
Tevriz,57.509,72.4042,45.0,45.0,45.0,88,100,5.83,RU,1634968823
Ponta do Sol,32.6667,-17.1,66.0,69.0,66.0,67,24,3.14,PT,1634968767
Saldanha,-33.0117,17.9442,57.0,57.0,57.0,68,67,8.08,ZA,1634968779
Tra Vinh,9.9347,106.3453,88.0,88.0,88.0,61,82,3.29,VN,1634968823
Esperance,-33.8667,121.9,64.0,64.0,64.0,49,8,7.09,AU,1634968823
Nanortalik,60.1432,-45.2371,38.0,38.0,38.0,98,100,5.71,GL,1634968824
Bereda,43.2686,-7.5406,40.0,45.0,37.0,100,11,0.63,ES,1634968824
Freetown,8.484,-13.2299,76.0,76.0,76.0,88,99,1.57,SL,1634968814
Port Elizabeth,-33.918,25.5701,68.0,68.0,68.0,51,77,6.26,ZA,1634968825
Maragogi,-9.0122,-35.2225,76.0,76.0,76.0,87,6,3.19,BR,1634968825
Garoowe,8.4054,48.4845,79.0,79.0,79.0,60,19,1.82,SO,1634968825
Tomatlán,19.9333,-105.25,75.0,75.0,75.0,97,78,1.15,MX,1634968826
Namatanai,-3.6667,152.4333,84.0,84.0,84.0,71,70,4.85,PG,1634968826
Hamilton,39.1834,-84.5333,51.0,53.0,50.0,96,99,0.89,US,1634968780
Mazatlán,23.2167,-106.4167,83.0,83.0,83.0,92,0,1.89,MX,1634968573
Milton,34.1322,-84.3007,52.0,55.0,47.0,93,0,2.79,US,1634968858
Verkhovazh'ye,60.7472,42.0465,38.0,38.0,38.0,96,100,5.56,RU,1634968859
Dingle,10.9995,122.6711,79.0,79.0,79.0,90,95,3.43,PH,1634968859
Amuntai,-2.4177,115.2494,95.0,95.0,95.0,44,91,1.24,ID,1634968860
Khorinsk,52.1657,109.7726,47.0,47.0,47.0,38,0,2.44,RU,1634968860
Poykovskiy,61.2333,73.3333,36.0,36.0,36.0,100,75,4.0,RU,1634968861
Provincia di Imperia,43.9667,7.7833,51.0,57.0,44.0,60,0,3.3,IT,1634968861
Camalú,30.85,-116.0667,61.0,61.0,61.0,91,4,2.72,MX,1634968862
Yar-Sale,66.8333,70.8333,27.0,27.0,27.0,91,89,5.0,RU,1634968788
Itarema,-2.9248,-39.9167,78.0,78.0,78.0,85,86,3.91,BR,1634968863
Muroto-misakicho,33.2833,134.15,67.0,67.0,67.0,43,0,3.9,JP,1634968863
Aswān,24.0934,32.907,67.0,67.0,67.0,39,0,5.14,EG,1634968446
Pundaguitan,6.3711,126.1689,82.0,82.0,82.0,76,94,6.33,PH,1634968866
Sibolga,1.7427,98.7792,83.0,83.0,83.0,70,85,1.43,ID,1634968591
Hereford,52.0568,-2.7148,48.0,51.0,46.0,90,78,2.69,GB,1634968867
Yorkton,51.2167,-102.4677,36.0,36.0,36.0,75,80,5.33,CA,1634968814
Aklavik,68.2191,-135.0107,27.0,27.0,27.0,84,97,3.66,CA,1634968868
Mount Isa,-20.7333,139.5,95.0,95.0,95.0,24,100,5.14,AU,1634968870
Del Rio,29.3627,-100.8968,72.0,75.0,72.0,62,28,6.08,US,1634968871
São Gabriel da Cachoeira,-0.1303,-67.0892,73.0,73.0,73.0,90,53,0.19,BR,1634968871
Torbay,47.6666,-52.7314,52.0,55.0,50.0,96,90,5.66,CA,1634968668
Bambous Virieux,-20.3428,57.7575,78.0,78.0,78.0,73,33,6.73,MU,1634968871
Aykhal,66.0,111.5,30.0,30.0,30.0,98,100,4.49,RU,1634968872
Avilés,43.5547,-5.9248,48.0,49.0,43.0,90,18,2.06,ES,1634968872
Presidencia Roque Sáenz Peña,-26.7852,-60.4388,75.0,75.0,75.0,48,54,3.96,AR,1634968873
Necochea,-38.5473,-58.7368,48.0,48.0,48.0,93,97,1.09,AR,1634968582
Faanui,-16.4833,-151.75,77.0,77.0,77.0,80,81,5.94,PF,1634968720
Pangody,65.85,74.4859,30.0,30.0,30.0,91,89,5.93,RU,1634968873
Acapulco de Juárez,16.8634,-99.8901,77.0,77.0,77.0,88,100,3.91,MX,1634968874
Mahibadhoo,3.7833,72.9667,83.0,83.0,83.0,70,21,6.36,MV,1634968874
Ţahţā,26.7693,31.5021,69.0,69.0,69.0,59,0,5.4,EG,1634968875
Kaitangata,-46.2817,169.8464,56.0,56.0,56.0,75,96,3.21,NZ,1634968875
Upernavik,72.7868,-56.1549,21.0,21.0,21.0,81,100,2.85,GL,1634968876
Havelock,34.8791,-76.9013,69.0,72.0,64.0,92,24,0.45,US,1634968876
Chiang Mai,18.75,99.0,82.0,84.0,82.0,74,75,2.57,TH,1634968876
Zamora,-4.0692,-78.9567,66.0,66.0,66.0,99,75,1.54,EC,1634968877
Muswellbrook,-32.2667,150.9,94.0,94.0,94.0,48,45,7.04,AU,1634968813
Kerman,30.2832,57.0788,55.0,55.0,55.0,28,0,2.06,IR,1634968707
Yumen,40.2833,97.2,57.0,57.0,57.0,23,1,9.03,CN,1634968877
Nuuk,64.1835,-51.7216,27.0,27.0,26.0,54,20,13.89,GL,1634968878
Longyearbyen,78.2186,15.6401,19.0,19.0,19.0,86,40,1.03,SJ,1634968878
Auki,-8.7676,160.7034,85.0,85.0,85.0,65,24,1.99,SB,1634968879
Katsuura,35.1333,140.3,64.0,68.0,64.0,43,0,7.44,JP,1634968879
Filingué,14.3521,3.3168,84.0,84.0,84.0,49,55,5.38,NE,1634968880
New Norfolk,-42.7826,147.0587,53.0,56.0,51.0,84,100,0.74,AU,1634968880
Atar,20.5169,-13.0499,74.0,74.0,74.0,23,98,3.16,MR,1634968880
Lugovoy,42.9472,72.7644,47.0,47.0,47.0,52,11,3.74,KZ,1634968881
Campo Grande,-20.4428,-54.6464,78.0,78.0,78.0,50,40,6.17,BR,1634968730
Brigantine,39.4101,-74.3646,56.0,58.0,52.0,86,93,4.63,US,1634968800
Jishou,28.3167,109.7167,64.0,64.0,64.0,48,23,2.26,CN,1634968881
Santiago,-33.4569,-70.6483,57.0,57.0,49.0,58,6,3.09,CL,1634968788
Carballo,43.213,-8.691,45.0,49.0,41.0,94,19,1.48,ES,1634968919
Ponta Porã,-22.5361,-55.7256,70.0,70.0,70.0,59,3,5.2,BR,1634968920
Yangi Marg`ilon,40.4272,71.7189,51.0,51.0,51.0,46,11,2.06,UZ,1634968920
Manche,49.0,-1.1667,48.0,48.0,48.0,83,100,1.88,FR,1634968920
Kjøllefjord,70.9457,27.3465,34.0,34.0,34.0,57,100,4.8,NO,1634968921
Isangel,-19.55,169.2667,78.0,78.0,78.0,81,76,3.69,VU,1634968922
Conceição do Araguaia,-8.2578,-49.2647,73.0,73.0,73.0,96,100,1.4,BR,1634968922
Maţāy,28.419,30.7792,69.0,69.0,69.0,70,57,7.08,EG,1634968922
Walvis Bay,-22.9575,14.5053,49.0,56.0,49.0,87,0,2.57,NA,1634968669
Laguna,38.421,-121.4238,58.0,60.0,55.0,83,1,0.89,US,1634968879
Ranong,9.9658,98.6348,83.0,83.0,83.0,77,91,0.75,TH,1634968923
Puerto del Rosario,28.5004,-13.8627,71.0,71.0,69.0,56,75,7.72,ES,1634968811
Neya,58.2972,43.8681,41.0,41.0,41.0,77,77,5.61,RU,1634968924
San Vicente,-26.6167,-54.1333,59.0,59.0,59.0,77,25,1.54,AR,1634968924
Voi,-3.3945,38.563,80.0,80.0,80.0,44,63,2.25,KE,1634968925
Jackson,42.4165,-122.8345,50.0,51.0,46.0,89,100,0.49,US,1634968817
Havre-St-Pierre,50.2334,-63.5986,47.0,51.0,47.0,93,90,5.14,CA,1634968786
Niquelândia,-14.4739,-48.4597,71.0,71.0,71.0,86,33,0.97,BR,1634968744
Hvide Sande,56.0045,8.1294,46.0,47.0,43.0,59,70,11.26,DK,1634968926
Jasper,37.2001,-94.3502,57.0,60.0,56.0,88,75,0.89,US,1634968927
Egvekinot,66.3167,-179.1667,11.0,11.0,11.0,84,100,4.06,RU,1634968928
Khovu-Aksy,51.1333,93.6,34.0,34.0,34.0,73,100,2.25,RU,1634968929
Panzhihua,26.5851,101.7128,69.0,69.0,69.0,61,84,0.41,CN,1634968929
Turukhansk,65.8167,87.9833,31.0,31.0,31.0,97,100,9.22,RU,1634968930
La Palma,33.8464,-118.0467,62.0,66.0,57.0,83,90,0.0,US,1634968932
Vestmannaeyjar,63.4427,-20.2734,47.0,47.0,47.0,88,97,2.02,IS,1634968933
Pachino,36.7186,15.0907,70.0,70.0,70.0,89,28,1.68,IT,1634968935
Gurupá,-1.405,-51.64,73.0,73.0,73.0,89,96,1.12,BR,1634968936
Rocha,-34.4833,-54.3333,54.0,54.0,54.0,92,95,1.27,UY,1634968714
Madera,37.1666,-119.8343,59.0,63.0,54.0,80,100,2.31,US,1634968937
Bristol,41.8334,-71.1662,52.0,55.0,49.0,73,85,1.34,US,1634968784
Roald,62.5833,6.1333,41.0,43.0,35.0,75,40,5.14,NO,1634968938
Forsytheganj,52.6333,29.7333,45.0,45.0,45.0,69,68,6.32,BY,1634968785
Fairbanks,64.8378,-147.7164,29.0,32.0,27.0,86,100,0.83,US,1634968941
Khailār,25.35,78.5333,84.0,84.0,84.0,40,2,2.47,IN,1634968941
Northam,51.0333,-4.2167,51.0,54.0,47.0,72,86,4.09,GB,1634968942
Zyryanka,65.75,150.85,-3.0,-3.0,-3.0,90,55,0.49,RU,1634968870
Wanaka,-44.7,169.15,63.0,63.0,63.0,51,98,0.45,NZ,1634968942
Totness,5.8833,-56.3167,77.0,77.0,77.0,90,98,4.67,SR,1634968942
Sur,22.5667,59.5289,85.0,85.0,85.0,58,0,2.59,OM,1634968816
Beringovskiy,63.05,179.3167,14.0,14.0,14.0,80,99,5.4,RU,1634968943
Kumul,42.8,93.45,61.0,61.0,61.0,21,16,2.64,CN,1634968943
Ville-Marie,47.3335,-79.433,31.0,31.0,31.0,80,84,1.63,CA,1634968813
La Paz,-16.5,-68.15,49.0,49.0,49.0,70,58,2.17,BO,1634968806
Buala,-8.145,159.5921,84.0,84.0,84.0,71,19,3.44,SB,1634968944
Sittwe,20.15,92.9,83.0,83.0,83.0,67,100,2.33,MM,1634968944
Athabasca,54.7169,-113.2854,43.0,44.0,41.0,50,100,5.51,CA,1634968777
Flinders,-34.5833,150.8552,76.0,80.0,68.0,77,60,3.16,AU,1634968833
Cayenne,4.9333,-52.3333,77.0,77.0,75.0,89,40,0.51,GF,1634968804
Xining,36.6167,101.7667,54.0,54.0,54.0,43,9,1.82,CN,1634968812
Dukat,62.55,155.55,3.0,3.0,3.0,89,100,0.5,RU,1634968945
Tiznit Province,29.5833,-9.5,58.0,58.0,58.0,75,0,0.49,MA,1634968946
San Fernando del Valle de Catamarca,-28.4696,-65.7852,70.0,70.0,70.0,65,1,6.91,AR,1634968721
Örebro,59.2741,15.2066,34.0,36.0,32.0,47,39,3.09,SE,1634968946
Takoradze,4.8845,-1.7554,77.0,77.0,77.0,87,100,2.67,GH,1634968947
Roberval,48.5168,-72.2324,35.0,35.0,35.0,72,47,2.83,CA,1634968980
Rudnogorsk,57.2639,103.7519,40.0,40.0,40.0,80,81,3.48,RU,1634968981
Lompoc,34.6391,-120.4579,56.0,61.0,53.0,88,90,4.63,US,1634968871
Kulhudhuffushi,6.6221,73.07,82.0,82.0,82.0,76,96,5.18,MV,1634968801
Vardø,70.3705,31.1107,34.0,34.0,34.0,62,100,7.19,NO,1634968981
Srednekolymsk,67.45,153.6833,-7.0,-7.0,-7.0,97,65,0.16,RU,1634968982
Leningradskiy,69.3833,178.4167,2.0,2.0,2.0,87,56,3.89,RU,1634968763
Kloulklubed,7.0419,134.2556,85.0,85.0,85.0,68,56,3.53,PW,1634968982
Smithers,54.7804,-127.1743,40.0,40.0,40.0,90,100,1.02,CA,1634968813
Trincomalee,8.5711,81.2335,84.0,84.0,84.0,74,35,3.0,LK,1634968983
Luancheng,37.8792,114.6517,62.0,62.0,62.0,40,22,3.13,CN,1634968983
Chillicothe,39.3331,-82.9824,51.0,54.0,49.0,100,90,1.54,US,1634968984
Augusto Corrêa,-1.0217,-46.635,75.0,75.0,75.0,93,100,1.48,BR,1634968738
Bac Lieu,9.285,105.7244,87.0,87.0,87.0,65,88,4.3,VN,1634968984
Fortuna,40.5982,-124.1573,54.0,56.0,51.0,71,90,1.79,US,1634968984
Río Gallegos,-51.6226,-69.2181,39.0,39.0,39.0,70,20,15.43,AR,1634968733
College,64.8569,-147.8028,30.0,32.0,24.0,86,100,0.94,US,1634968985
Witu,-2.3889,40.4382,83.0,83.0,83.0,58,52,3.97,KE,1634968986
Mpanda,-6.3655,31.0409,83.0,83.0,83.0,38,51,2.19,TZ,1634968986
Turaif,31.6725,38.6637,68.0,68.0,68.0,31,0,4.29,SA,1634968986
Old Shinyanga,-3.55,33.4,80.0,80.0,80.0,44,84,3.24,TZ,1634968987
Vao,-22.6667,167.4833,74.0,74.0,74.0,79,0,3.38,NC,1634968987
Quaraí,-30.3875,-56.4514,62.0,62.0,62.0,70,56,3.68,BR,1634968987
Davlekanovo,54.2215,55.0343,48.0,48.0,48.0,76,24,7.06,RU,1634968988
Vanavara,60.34,102.2797,41.0,41.0,41.0,62,100,5.5,RU,1634968988
Arak,34.0917,49.6892,55.0,55.0,55.0,32,0,2.28,IR,1634968989
Hasaki,35.7333,140.8333,65.0,65.0,63.0,47,32,8.61,JP,1634968833
Nicoya,10.1483,-85.452,74.0,74.0,74.0,95,48,0.85,CR,1634968989
Behshahr,36.6923,53.5526,69.0,69.0,69.0,32,0,1.35,IR,1634968989
Ayagoz,47.9714,80.4392,41.0,41.0,41.0,43,21,9.87,KZ,1634968990
Huarmey,-10.0681,-78.1522,63.0,63.0,63.0,88,79,3.55,PE,1634968990
Amapá,1.0,-52.0,70.0,70.0,70.0,99,99,0.2,BR,1634968990
Kokstad,-30.5472,29.4241,67.0,67.0,67.0,27,42,1.71,ZA,1634968991
Keti Bandar,24.1447,67.4497,84.0,84.0,84.0,53,0,8.84,PK,1634968991
Sheopur,25.6667,76.7,81.0,81.0,81.0,52,0,3.06,IN,1634968992
Ilulissat,69.2167,-51.1,21.0,21.0,21.0,68,40,6.69,GL,1634968992
Ocós,14.5094,-92.1933,77.0,79.0,77.0,83,40,2.26,GT,1634968992
Uvarovka,55.5278,35.6061,41.0,41.0,41.0,74,98,5.99,RU,1634968993
Kysyl-Syr,63.8986,122.7617,33.0,33.0,33.0,81,97,4.36,RU,1634968993
Otane,-39.8833,176.6333,57.0,57.0,55.0,74,95,3.59,NZ,1634968993
Falam,22.9167,93.6833,74.0,74.0,74.0,50,46,1.65,MM,1634968994
Radzyń Podlaski,51.7833,22.6167,42.0,43.0,40.0,68,70,8.07,PL,1634968984
Aksu,41.1231,80.2644,56.0,56.0,56.0,47,98,2.05,CN,1634968994
Kirakira,-10.4544,161.9205,84.0,84.0,84.0,70,27,3.64,SB,1634968995
Tura,25.5198,90.2201,80.0,80.0,80.0,53,0,0.91,IN,1634968995
Kununurra,-15.7667,128.7333,104.0,104.0,104.0,29,40,4.12,AU,1634968996
Narsaq,60.9167,-46.05,38.0,38.0,38.0,99,100,1.77,GL,1634968837
Qui Nhon,13.7667,109.2333,78.0,78.0,78.0,92,100,5.59,VN,1634968996
Gamboma,-1.8764,15.8644,74.0,74.0,74.0,90,94,0.88,CG,1634968996
Feijó,-8.1642,-70.3536,74.0,74.0,74.0,89,51,1.28,BR,1634968997
Bāneh,35.9975,45.8853,60.0,60.0,60.0,25,0,2.15,IR,1634968997
Soyo,-6.1349,12.3689,78.0,78.0,78.0,83,95,1.71,AO,1634968997
Ushtobe,45.2514,77.9838,48.0,48.0,48.0,38,17,3.37,KZ,1634968998
Isiro,2.7739,27.616,73.0,73.0,73.0,80,94,0.87,CD,1634968998
Dahuk,36.8695,42.994,69.0,69.0,69.0,21,0,0.76,IQ,1634968999
Broken Hill,-31.95,141.4333,73.0,73.0,73.0,25,59,8.28,AU,1634968999
Hobyo,5.3505,48.5268,82.0,82.0,82.0,65,15,1.52,SO,1634969041
Svetlaya,46.5389,138.3297,51.0,51.0,51.0,50,6,2.89,RU,1634969042
Beidao,34.5686,105.8933,54.0,54.0,54.0,73,100,3.23,CN,1634969042
Tambovka,50.0969,128.0489,59.0,59.0,59.0,43,3,3.96,RU,1634969043
Hambantota,6.1241,81.1185,88.0,88.0,88.0,70,40,4.63,LK,1634969043
Ginir,7.1333,40.7,68.0,68.0,68.0,50,59,5.26,ET,1634969043
Taoudenni,22.6783,-3.9836,74.0,74.0,74.0,30,0,2.74,ML,1634969044
Kang,-23.6752,22.7876,71.0,71.0,71.0,14,0,4.28,BW,1634969044
Maxixe,-23.8597,35.3472,79.0,79.0,79.0,53,0,6.05,MZ,1634969045
Bandrele,-12.9067,45.1914,82.0,82.0,82.0,74,0,1.54,YT,1634969045
Brae,60.3964,-1.353,48.0,48.0,48.0,73,98,6.1,GB,1634969045
Ilo,-17.6394,-71.3375,60.0,60.0,60.0,81,44,2.96,PE,1634969046
Soavinandriana,-19.1667,46.7333,73.0,73.0,73.0,37,99,3.06,MG,1634969046
Dordrecht,51.81,4.6736,44.0,48.0,39.0,93,40,2.01,NL,1634969047
San Policarpo,12.1791,125.5072,80.0,80.0,80.0,87,100,2.98,PH,1634969047
Severo-Kuril'sk,50.6789,156.125,39.0,39.0,39.0,83,56,4.98,RU,1634968898
Bulungu,-4.55,18.6,74.0,74.0,74.0,91,80,0.43,CD,1634969048
Luang Prabang,19.8856,102.1347,79.0,79.0,79.0,71,98,0.89,LA,1634969048
Naze,28.3667,129.4833,68.0,68.0,68.0,60,87,6.5,JP,1634969048
Grants,35.1473,-107.8514,41.0,41.0,41.0,56,1,2.06,US,1634969049
Norman Wells,65.282,-126.8329,33.0,33.0,33.0,91,54,3.43,CA,1634969049
Andros Town,24.7,-77.7667,77.0,77.0,77.0,79,100,7.62,BS,1634969049
Touros,-5.1989,-35.4608,80.0,80.0,80.0,82,26,3.49,BR,1634969050
San Jerónimo,-11.9472,-75.2829,53.0,53.0,53.0,68,55,0.74,PE,1634969050
Ossora,59.2353,163.0719,23.0,23.0,23.0,77,42,0.96,RU,1634969051
Saint Paul Harbor,57.79,-152.4072,42.0,42.0,42.0,84,99,3.6,US,1634969051
Thompson,55.7435,-97.8558,31.0,31.0,31.0,91,93,0.87,CA,1634969052
Drinovci,43.355,17.3539,54.0,54.0,54.0,92,100,1.46,BA,1634969052
Paamiut,61.994,-49.6678,33.0,33.0,33.0,55,2,11.66,GL,1634969052
Kalugumalai,9.15,77.7167,83.0,83.0,83.0,59,96,1.59,IN,1634969053
Tessalit,20.1986,1.0114,77.0,77.0,77.0,24,13,3.24,ML,1634969053
Dubai,25.2582,55.3047,87.0,87.0,87.0,49,0,0.5,AE,1634968937
Boa Vista,2.8197,-60.6733,77.0,77.0,77.0,83,75,2.06,BR,1634969053
Flin Flon,54.7682,-101.865,34.0,34.0,34.0,82,100,2.78,CA,1634969054
Māngrol,21.1167,70.1167,82.0,82.0,82.0,57,7,4.74,IN,1634969054
Port Shepstone,-30.7414,30.455,71.0,71.0,71.0,68,17,2.81,ZA,1634969055
Mehamn,71.0357,27.8492,33.0,33.0,33.0,64,100,5.41,NO,1634969055
Enying,46.9305,18.242,49.0,49.0,49.0,62,78,3.67,HU,1634969056
Çanakkale Province,40.0833,26.8333,52.0,62.0,51.0,76,0,1.29,TR,1634969056
Amahai,-3.3333,128.9167,85.0,85.0,85.0,68,46,2.26,ID,1634969056
La Ronge,55.1001,-105.2842,32.0,32.0,32.0,86,90,7.2,CA,1634968814
Nouadhibou,20.931,-17.0347,69.0,69.0,69.0,80,42,7.68,MR,1634969057
Pangnirtung,66.1451,-65.7125,26.0,26.0,26.0,72,91,3.61,CA,1634969057
Dobryatino,55.5055,41.3195,44.0,44.0,44.0,71,86,5.55,RU,1634969057
Constitución,-35.3333,-72.4167,49.0,49.0,49.0,71,2,3.82,CL,1634968856
Quatre Cocos,-20.2078,57.7625,78.0,78.0,78.0,73,69,6.62,MU,1634969022
Salekhard,66.53,66.6019,29.0,29.0,29.0,97,100,2.81,RU,1634969058
Pandan,14.0453,124.1694,77.0,77.0,77.0,94,100,3.61,PH,1634969058
Murgab,37.4966,61.9714,53.0,53.0,53.0,32,0,4.12,TM,1634969059
Lakota,5.8528,-5.6883,71.0,71.0,71.0,99,98,0.79,CI,1634969059
Shahe,39.2708,113.5478,52.0,52.0,52.0,36,27,0.14,CN,1634969059
Rio Grande,-32.035,-52.0986,57.0,57.0,57.0,88,42,4.37,BR,1634969060
Gushikawa,26.3544,127.8686,74.0,75.0,73.0,52,75,4.63,JP,1634969060
Lodwar,3.1191,35.5973,88.0,88.0,88.0,38,76,7.28,KE,1634969102
Le Port,-20.9373,55.2919,82.0,83.0,79.0,80,6,4.75,RE,1634969103
Ancud,-41.8697,-73.8203,46.0,46.0,46.0,88,99,5.07,CL,1634968895
Monrovia,6.3005,-10.7969,77.0,77.0,77.0,92,100,1.73,LR,1634968978
Fort Myers Beach,26.452,-81.9481,75.0,77.0,71.0,91,1,1.54,US,1634968899
Alice Springs,-23.7,133.8833,89.0,89.0,89.0,17,1,6.17,AU,1634969104
Saint George,37.1041,-113.5841,64.0,66.0,63.0,26,70,0.89,US,1634968811
Olafsvik,64.8945,-23.7142,46.0,46.0,46.0,92,100,3.59,IS,1634969105
Sukhobuzimskoye,56.5,93.2728,42.0,42.0,42.0,50,82,7.33,RU,1634969105
Carnarvon,-24.8667,113.6333,81.0,81.0,81.0,50,0,9.26,AU,1634969106
Pacific Grove,36.6177,-121.9166,54.0,58.0,51.0,90,20,0.45,US,1634969106
Kappeln,54.6612,9.9313,43.0,46.0,41.0,72,35,7.1,DE,1634969106
Half Moon Bay,37.4636,-122.4286,56.0,59.0,52.0,88,90,0.0,US,1634969107
Wajima,37.4,136.9,58.0,58.0,58.0,49,94,5.89,JP,1634969107
Antu,26.05,81.9167,84.0,84.0,84.0,42,0,1.98,IN,1634969107
Muros,42.7762,-9.0603,44.0,57.0,44.0,94,27,1.2,ES,1634969108
West Bay,19.3667,-81.4167,82.0,82.0,79.0,86,88,0.45,KY,1634969108
Tamandaré,-8.7597,-35.1047,76.0,76.0,76.0,87,18,2.35,BR,1634969109
Dŭstí,37.3481,68.664,58.0,58.0,58.0,29,0,2.09,TJ,1634969109
Byron Bay,-28.65,153.6167,84.0,92.0,77.0,74,0,7.52,AU,1634969109
Piaçabuçu,-10.4056,-36.4344,75.0,75.0,75.0,92,19,3.35,BR,1634969110
Akureyri,65.6835,-18.0878,41.0,41.0,41.0,98,100,3.07,IS,1634969110
Warrnambool,-38.3833,142.4833,58.0,58.0,58.0,67,67,7.31,AU,1634969111
Alta Floresta,-9.8756,-56.0861,71.0,71.0,71.0,98,100,1.09,BR,1634969111
Altagracia de Orituco,9.8601,-66.3814,71.0,71.0,71.0,96,60,1.44,VE,1634969111
Noshiro,40.2039,140.0242,53.0,53.0,53.0,53,83,7.76,JP,1634969112
Nioro,13.35,-15.75,72.0,72.0,72.0,55,29,1.16,GM,1634969112
Ubari,26.5921,12.7805,73.0,73.0,73.0,27,9,7.19,LY,1634969113
Seymchan,62.8833,152.4333,5.0,5.0,5.0,72,99,0.39,RU,1634969113
Porterville,36.0652,-119.0168,62.0,63.0,60.0,72,90,3.09,US,1634969113
Riyadh,24.6877,46.7219,82.0,82.0,82.0,24,4,2.65,SA,1634968826
Eureka,40.8021,-124.1637,54.0,56.0,52.0,91,100,0.45,US,1634969114
Bara,10.3744,10.7288,74.0,74.0,74.0,90,91,3.27,NG,1634969114
Nelson Bay,-32.7167,152.15,78.0,81.0,72.0,77,7,7.73,AU,1634969115
Liverpool,53.4106,-2.9779,49.0,50.0,46.0,85,75,1.34,GB,1634969115
Simao,22.7886,100.9748,61.0,61.0,61.0,96,100,0.89,CN,1634969115
San Juan,-31.5375,-68.5364,60.0,60.0,60.0,39,0,6.99,AR,1634969116
Salaverry,-8.2333,-78.9667,61.0,61.0,61.0,92,94,3.54,PE,1634969116
Caruray,10.3094,119.0128,84.0,84.0,84.0,77,56,2.33,PH,1634969116
Sandnessjøen,66.0217,12.6316,36.0,37.0,32.0,82,100,0.89,NO,1634969117
Tornio,65.8481,24.1466,23.0,23.0,23.0,88,100,5.25,FI,1634969117
Sakakah,29.9697,40.2064,72.0,72.0,72.0,32,3,4.7,SA,1634969117
Fukuechō,32.6881,128.8419,67.0,67.0,67.0,52,43,10.22,JP,1634969118
Lloydminster,53.2835,-110.0016,38.0,38.0,38.0,49,100,7.99,CA,1634969118
Nantucket,41.2835,-70.0995,59.0,61.0,52.0,86,1,3.6,US,1634969064
Bintulu,3.1667,113.0333,82.0,82.0,82.0,73,96,2.64,MY,1634969118
Amboasary,-25.0333,46.3833,76.0,76.0,76.0,61,100,1.19,MG,1634969119
Usinsk,65.9939,57.5281,30.0,30.0,30.0,98,100,5.28,RU,1634969119
Sassandra,4.95,-6.0833,74.0,74.0,74.0,93,95,1.46,CI,1634969120
Labytnangi,66.6572,66.4183,29.0,29.0,29.0,97,100,2.36,RU,1634969120
Richards Bay,-28.783,32.0377,75.0,75.0,75.0,66,2,1.38,ZA,1634969120
Samarai,-10.6167,150.6667,81.0,81.0,81.0,80,100,6.61,PG,1634969121
Wanning,18.8003,110.3967,74.0,74.0,74.0,83,96,6.92,CN,1634969121
Ola,59.5833,151.2833,25.0,25.0,25.0,74,100,6.99,RU,1634968956
Port Hedland,-20.3167,118.5667,99.0,99.0,99.0,16,2,7.2,AU,1634969122
Dunedin,-45.8742,170.5036,54.0,54.0,54.0,77,98,5.36,NZ,1634968884
Te Anau,-45.4167,167.7167,60.0,60.0,60.0,69,99,0.67,NZ,1634969163
Staryy Nadym,65.6118,72.6842,30.0,30.0,30.0,91,83,6.29,RU,1634969164
Plettenberg Bay,-34.0527,23.3716,64.0,64.0,64.0,58,100,4.95,ZA,1634969164
Abu Samrah,35.3029,37.1841,69.0,69.0,69.0,38,0,0.75,SY,1634969165
Portland,45.5234,-122.6762,51.0,54.0,49.0,92,90,1.79,US,1634968774
Changying,52.8733,123.3213,46.0,46.0,46.0,50,7,2.58,CN,1634969165
Kaduy,59.2,37.15,41.0,41.0,41.0,82,100,4.74,RU,1634969165
Ekibastuz,51.6667,75.3667,45.0,45.0,45.0,69,100,13.61,KZ,1634969166
Balaipungut,1.05,101.2833,88.0,88.0,88.0,48,34,0.14,ID,1634969166
Petropavlovsk-Kamchatskiy,53.0452,158.6483,36.0,36.0,36.0,81,75,2.0,RU,1634969167
Parabel',58.6978,81.4825,36.0,36.0,36.0,96,100,7.85,RU,1634969167
Tucumã,-0.1833,-50.05,77.0,77.0,77.0,87,99,2.4,BR,1634969167
Ruteng,-8.6136,120.4721,76.0,76.0,76.0,61,78,0.64,ID,1634969168
Dakoro,14.5106,6.765,82.0,82.0,82.0,51,89,3.81,NE,1634969168
Padang,-0.9492,100.3543,86.0,86.0,86.0,74,62,2.43,ID,1634969169
Caravelas,-17.7125,-39.2481,74.0,74.0,74.0,87,98,2.86,BR,1634969067
Manakara,-22.1333,48.0167,75.0,75.0,75.0,71,100,0.36,MG,1634969169
Seminole,28.7086,-81.2081,70.0,74.0,67.0,92,1,0.0,US,1634969169
Batemans Bay,-35.7167,150.1833,83.0,83.0,81.0,83,66,3.66,AU,1634969170
Shakawe,-18.3667,21.85,82.0,82.0,82.0,43,16,1.98,BW,1634969170
Poros,37.4994,23.4536,64.0,70.0,61.0,74,5,1.78,GR,1634969171
Koumac,-20.5667,164.2833,76.0,76.0,76.0,77,7,6.48,NC,1634969171
Sompeta,18.9333,84.6,84.0,84.0,84.0,60,59,1.56,IN,1634969171
Sambava,-14.2667,50.1667,82.0,82.0,82.0,71,15,2.44,MG,1634969172
Saint Anthony,45.0205,-93.218,34.0,37.0,29.0,78,1,0.0,US,1634969172
Uchiza,-8.4592,-76.4633,74.0,74.0,74.0,82,89,0.86,PE,1634969173
Sartell,45.6216,-94.2069,32.0,36.0,29.0,91,90,0.0,US,1634969173
Sørland,67.667,12.6934,34.0,34.0,34.0,86,40,2.06,NO,1634969173
Tripoli,32.8752,13.1875,77.0,77.0,77.0,44,24,4.66,LY,1634969174
Kapit,2.0167,112.9333,82.0,82.0,82.0,84,80,0.73,MY,1634969174
Baruun-Urt,46.6806,113.2792,47.0,47.0,47.0,28,26,6.3,MN,1634969175
Grand Gaube,-20.0064,57.6608,79.0,79.0,79.0,70,73,5.81,MU,1634969175
Privolzhskiy,51.4,46.0333,55.0,56.0,51.0,71,100,4.95,RU,1634969176
Kittery,43.0881,-70.7362,49.0,55.0,44.0,87,75,2.57,US,1634969176
San Andrés,12.5847,-81.7006,81.0,81.0,81.0,89,40,2.57,CO,1634969176
Spoleto,42.7448,12.7374,55.0,59.0,50.0,88,100,1.07,IT,1634969177
Linqu,36.5156,118.5397,68.0,68.0,68.0,32,30,0.67,CN,1634969177
Hauterive,46.0901,3.4459,31.0,36.0,31.0,93,7,1.12,FR,1634969178
Sabaudia,41.3003,13.0282,62.0,65.0,60.0,90,69,4.32,IT,1634969178
Omboué,-1.5746,9.2618,76.0,76.0,76.0,87,100,3.52,GA,1634969179
Laas,46.6166,10.7002,38.0,38.0,29.0,62,18,1.73,IT,1634969179
Acaraú,-2.8856,-40.12,78.0,78.0,78.0,86,91,3.76,BR,1634969179
Maseru,-29.3167,27.4833,62.0,62.0,62.0,31,0,2.74,LS,1634969180
Zhangye,38.9342,100.4517,60.0,60.0,60.0,22,13,2.25,CN,1634969180
Gberia Fotombu,9.8833,-11.1667,69.0,69.0,69.0,99,91,0.36,SL,1634969181
Breznik,42.7414,22.8981,51.0,55.0,42.0,77,92,1.13,BG,1634968843
Bentiu,9.2333,29.8333,82.0,82.0,82.0,64,44,1.54,SS,1634969181
Melchor de Mencos,17.0686,-89.1522,75.0,75.0,75.0,94,0,0.0,GT,1634969182
Gröbenzell,48.2,11.3667,40.0,41.0,36.0,87,75,3.6,DE,1634969182
Kochi,9.9399,76.2602,86.0,86.0,86.0,72,81,2.59,IN,1634968923
Mayumba,-3.432,10.6554,77.0,77.0,77.0,86,100,1.92,GA,1634969182
Marsaxlokk,35.8419,14.5431,72.0,72.0,72.0,88,0,4.12,MT,1634969224
Muisne,0.6,-80.0333,74.0,74.0,74.0,88,100,3.75,EC,1634969225
Manga,11.6636,-1.0731,76.0,76.0,76.0,78,96,2.51,BF,1634969225
Businga,3.3333,20.8833,73.0,73.0,73.0,94,67,0.67,CD,1634969226
Madang,-5.2246,145.7966,85.0,85.0,85.0,68,100,3.77,PG,1634969226
Antofagasta,-23.65,-70.4,58.0,58.0,58.0,85,42,1.76,CL,1634969163
Ol'ga,43.7444,135.2892,55.0,55.0,55.0,46,3,4.43,RU,1634969227
Tambopata,-12.7333,-69.1833,76.0,76.0,76.0,77,54,0.95,PE,1634969227
Qaqortoq,60.7167,-46.0333,38.0,38.0,38.0,98,100,1.35,GL,1634969227
Puerto Escondido,15.85,-97.0667,76.0,76.0,76.0,87,100,2.85,MX,1634969228
Jamiltepec,16.2833,-97.8167,68.0,68.0,68.0,96,100,1.17,MX,1634969228
Arlit,18.7369,7.3853,83.0,83.0,83.0,16,12,4.62,NE,1634969229
Lapeer,43.0514,-83.3188,39.0,44.0,36.0,100,40,0.0,US,1634969229
Port Blair,11.6667,92.75,79.0,79.0,79.0,80,100,2.94,IN,1634969230
Hanmer Springs,-42.5167,172.8167,57.0,57.0,57.0,76,98,1.09,NZ,1634969230
Kurtalan,37.9272,41.7028,56.0,56.0,52.0,35,0,1.03,TR,1634969231
Faro,37.0194,-7.9322,64.0,64.0,64.0,48,0,3.09,PT,1634969071
Olinda,-8.0089,-34.8553,80.0,80.0,80.0,78,20,2.06,BR,1634968970
Yining,29.0361,114.5636,68.0,68.0,68.0,48,18,0.95,CN,1634969231
Kamskiye Polyany,55.4307,51.4171,47.0,47.0,47.0,79,4,7.34,RU,1634969231
Rosário do Sul,-30.2583,-54.9142,58.0,58.0,58.0,85,44,3.1,BR,1634969232
Kāzerūn,29.6195,51.6541,78.0,78.0,78.0,18,0,1.03,IR,1634969232
