City,Lat,Lng,Temp,Max Temp,Min Temp,Humidity,Cloudiness,Wind Speed,Country,Date
Ushuaia,-54.8,-68.3,33.0,33.0,33.0,86,75,5.66,AR,1635042608
Rikitea,-23.1203,-134.9692,75.0,75.0,75.0,79,100,8.59,PF,1635042618
Mar del Plata,-38.0023,-57.5575,50.0,53.0,48.0,72,20,0.89,AR,1635042631
East London,-33.0153,27.9116,59.0,59.0,59.0,66,16,7.43,ZA,1635042454
Albany,42.6001,-73.9662,45.0,48.0,39.0,77,83,0.45,US,1635042497
Bagan,54.1001,77.6646,46.0,46.0,46.0,79,99,7.07,RU,1635042634
Sakakah,29.9697,40.2064,64.0,64.0,64.0,37,0,2.3,SA,1635042635
Airai,-8.9266,125.4092,82.0,82.0,82.0,33,25,0.81,TL,1635042636
Castro,-24.7911,-50.0119,59.0,59.0,59.0,97,100,2.55,BR,1635042636
Avarua,-21.2078,-159.775,75.0,75.0,75.0,53,75,3.09,CK,1635042637
Bluff,-46.6,168.3333,53.0,53.0,53.0,92,100,2.13,NZ,1635042559
Longyearbyen,78.2186,15.6401,16.0,16.0,16.0,86,0,3.09,SJ,1635042637
Moshenskoye,58.5102,34.5911,34.0,34.0,34.0,96,100,4.56,RU,1635042639
Jamestown,42.097,-79.2353,44.0,44.0,43.0,95,75,1.34,US,1635042429
Nam Som,17.7704,102.1895,78.0,78.0,77.0,78,100,1.78,TH,1635042641
Ancud,-41.8697,-73.8203,48.0,48.0,48.0,77,82,4.21,CL,1635042642
Punta Arenas,-53.15,-70.9167,38.0,38.0,37.0,81,20,7.72,CL,1635042642
Cherskiy,68.75,161.3,-5.0,-5.0,-5.0,100,88,2.03,RU,1635042643
Hambantota,6.1241,81.1185,79.0,79.0,79.0,94,20,4.12,LK,1635042643
Narsaq,60.9167,-46.05,34.0,34.0,34.0,52,32,1.95,GL,1635042644
Northam,51.0333,-4.2167,53.0,56.0,51.0,79,98,8.93,GB,1635042645
Yulara,-25.2406,130.9889,80.0,80.0,80.0,19,3,9.26,AU,1635042394
Kruisfontein,-34.0033,24.7314,50.0,50.0,50.0,79,6,3.58,ZA,1635042647
Thompson,55.7435,-97.8558,25.0,25.0,25.0,93,20,0.0,CA,1635042648
Khatanga,71.9667,102.5,7.0,7.0,7.0,92,95,7.16,RU,1635042649
Peterhead,57.5058,-1.7981,52.0,54.0,51.0,87,100,13.13,GB,1635042649
Lamar,33.6668,-95.5836,74.0,76.0,73.0,78,1,4.12,US,1635042650
Price,39.5994,-110.8107,49.0,49.0,44.0,57,75,3.6,US,1635042651
Benghazi,32.1167,20.0667,74.0,74.0,74.0,46,61,8.15,LY,1635042653
Padang,-0.9492,100.3543,81.0,81.0,81.0,81,75,2.38,ID,1635042653
Lavrentiya,65.5833,-171.0,24.0,24.0,24.0,83,100,4.36,RU,1635042655
Mikuni,36.2171,136.1519,66.0,66.0,66.0,48,28,3.8,JP,1635042656
Carutapera,-1.195,-46.02,78.0,78.0,78.0,86,99,2.18,BR,1635042656
Businga,3.3333,20.8833,70.0,70.0,70.0,99,54,0.68,CD,1635042657
Puerto Ayora,-0.7393,-90.3518,69.0,69.0,69.0,89,85,3.55,EC,1635042487
Talnakh,69.4865,88.3972,23.0,23.0,23.0,90,100,2.65,RU,1635042658
Nantucket,41.2835,-70.0995,55.0,57.0,48.0,65,1,5.14,US,1635042454
Mataura,-46.1927,168.8643,67.0,67.0,67.0,56,99,1.74,NZ,1635042659
Challans,46.8436,-1.8749,41.0,44.0,39.0,75,5,3.87,FR,1635042660
Palāsa,18.7667,84.4167,79.0,79.0,79.0,63,98,1.33,IN,1635042660
Hermanus,-34.4187,19.2345,50.0,54.0,50.0,70,26,1.57,ZA,1635042443
Chui,-33.6971,-53.4616,54.0,54.0,54.0,95,41,3.46,UY,1635042661
George Town,5.4112,100.3354,85.0,86.0,84.0,78,20,1.54,MY,1635042449
Viranşehir,37.2353,39.7631,61.0,61.0,61.0,18,0,2.98,TR,1635042664
Rognan,67.0953,15.3878,33.0,35.0,33.0,74,100,3.07,NO,1635042664
Esperance,-33.8667,121.9,73.0,73.0,73.0,39,15,5.61,AU,1635042665
Hobart,-42.8794,147.3294,53.0,56.0,50.0,60,75,1.79,AU,1635042665
Arraial do Cabo,-22.9661,-42.0278,71.0,71.0,71.0,89,0,14.42,BR,1635042521
Salmon Arm,50.6998,-119.3024,51.0,52.0,50.0,81,93,1.03,CA,1635042615
Tuktoyaktuk,69.4541,-133.0374,30.0,30.0,30.0,86,90,2.06,CA,1635042378
Narón,43.5167,-8.1528,52.0,55.0,51.0,81,2,3.29,ES,1635042667
Taoudenni,22.6783,-3.9836,80.0,80.0,80.0,23,0,3.56,ML,1635042667
Singkang,2.1006,102.7994,86.0,86.0,86.0,74,76,1.72,MY,1635042667
Olafsvik,64.8945,-23.7142,45.0,45.0,45.0,84,100,5.34,IS,1635042668
Ouadda,8.0777,22.4007,69.0,69.0,69.0,90,98,0.63,CF,1635042668
Sibolga,1.7427,98.7792,78.0,78.0,78.0,85,99,0.59,ID,1635042564
Orangeburg,33.4918,-80.8557,58.0,60.0,54.0,94,1,0.0,US,1635042519
Kapaa,22.0752,-159.319,78.0,84.0,77.0,77,40,1.34,US,1635042454
Ayagoz,47.9714,80.4392,37.0,37.0,37.0,47,38,4.37,KZ,1635042672
Kavaratti,10.5669,72.642,81.0,81.0,81.0,76,73,1.0,IN,1635042673
Seoul,37.5683,126.9778,58.0,60.0,54.0,44,0,1.54,KR,1635042000
Barrow,71.2906,-156.7887,30.0,30.0,30.0,80,90,6.17,US,1635042674
Mount Isa,-20.7333,139.5,97.0,97.0,97.0,23,22,5.66,AU,1635042675
Altay,47.8667,88.1167,32.0,32.0,32.0,53,48,0.5,CN,1635042675
Roald,62.5833,6.1333,52.0,52.0,41.0,66,90,6.17,NO,1635042676
Hithadhoo,-0.6,73.0833,83.0,83.0,83.0,73,100,5.7,MV,1635042678
Majene,-3.5403,118.9707,85.0,85.0,85.0,66,24,2.99,ID,1635042678
Riverton,40.5219,-111.9391,41.0,48.0,39.0,89,40,0.45,US,1635042678
Lebu,-37.6167,-73.65,49.0,49.0,49.0,93,13,2.5,CL,1635042679
Vardø,70.3705,31.1107,36.0,36.0,36.0,66,73,10.48,NO,1635042436
Poum,-20.2333,164.0167,74.0,74.0,74.0,76,31,2.79,NC,1635042680
Kenai,60.5544,-151.2583,44.0,45.0,43.0,72,1,7.2,US,1635042683
Atuona,-9.8,-139.0333,78.0,78.0,78.0,78,17,8.23,PF,1635042684
Torbay,47.6666,-52.7314,59.0,60.0,55.0,95,90,5.66,CA,1635042618
Mount Gambier,-37.8333,140.7667,57.0,57.0,57.0,58,90,5.66,AU,1635042686
Almaznyy,48.0448,40.045,45.0,45.0,45.0,68,59,2.61,RU,1635042687
Puerto Baquerizo Moreno,-0.9,-89.6,69.0,69.0,69.0,87,91,4.28,EC,1635042687
Ballina,-28.8667,153.5667,86.0,88.0,85.0,35,83,7.2,AU,1635042688
Sitka,57.0531,-135.33,48.0,48.0,48.0,66,90,5.14,US,1635042690
Peniche,39.3558,-9.3811,52.0,64.0,49.0,91,0,3.44,PT,1635042690
Busselton,-33.65,115.3333,76.0,76.0,74.0,58,99,3.35,AU,1635042692
Kostomuksha,64.571,30.5767,19.0,19.0,19.0,94,46,2.14,RU,1635042692
Pudozh,61.8099,36.5345,32.0,32.0,32.0,87,100,2.6,RU,1635042693
Rondonópolis,-16.4708,-54.6356,83.0,83.0,83.0,58,39,3.31,BR,1635042693
Bethel,41.3712,-73.414,50.0,55.0,45.0,81,90,0.0,US,1635042694
Haimen,23.1935,116.6142,71.0,71.0,71.0,69,39,4.15,CN,1635042694
Cape Town,-33.9258,18.4232,53.0,55.0,50.0,75,20,3.09,ZA,1635042696
Tieli,46.95,128.05,50.0,50.0,50.0,42,0,4.13,CN,1635042696
Pachino,36.7186,15.0907,73.0,73.0,73.0,88,100,8.75,IT,1635042698
Sinnamary,5.3833,-52.95,78.0,78.0,78.0,86,93,4.48,GF,1635042699
Gladstone,-23.85,151.25,86.0,89.0,86.0,58,64,4.12,AU,1635042700
Yellowknife,62.456,-114.3525,41.0,42.0,39.0,80,75,7.72,CA,1635042615
Nizwá,22.9333,57.5333,75.0,75.0,75.0,57,0,0.54,OM,1635042700
Klaksvík,62.2266,-6.589,49.0,49.0,49.0,90,100,6.02,FO,1635042701
Amahai,-3.3333,128.9167,83.0,83.0,83.0,75,97,1.73,ID,1635042702
Kisangani,0.5167,25.2,69.0,69.0,69.0,99,64,0.64,CD,1635042702
Norman Wells,65.282,-126.8329,32.0,32.0,32.0,80,75,0.0,CA,1635042470
Pangnirtung,66.1451,-65.7125,24.0,24.0,24.0,84,99,2.5,CA,1635042703
Berdigestyakh,62.0989,126.6992,35.0,35.0,35.0,96,100,4.51,RU,1635042704
Grand Gaube,-20.0064,57.6608,75.0,75.0,74.0,75,78,2.68,MU,1635042704
Bull Savanna,17.8868,-77.5902,77.0,77.0,77.0,86,51,3.68,JM,1635042706
Nanortalik,60.1432,-45.2371,35.0,35.0,35.0,67,26,10.12,GL,1635042707
São João da Barra,-21.6403,-41.0511,72.0,72.0,72.0,90,5,10.14,BR,1635042707
Batemans Bay,-35.7167,150.1833,69.0,74.0,66.0,37,11,4.15,AU,1635042707
Kaoma,-14.7833,24.8,67.0,67.0,67.0,64,36,0.6,ZM,1635042708
Marawi,7.9986,124.2928,74.0,74.0,74.0,61,89,1.31,PH,1635042474
Saskylakh,71.9167,114.0833,7.0,7.0,7.0,94,100,6.1,RU,1635042710
Kahului,20.8947,-156.47,79.0,82.0,76.0,70,1,10.29,US,1635042710
Ixtapa,20.7,-105.2,83.0,83.0,83.0,84,40,0.0,MX,1635042710
Puerto Peñasco,31.3167,-113.5333,76.0,76.0,76.0,77,25,3.13,MX,1635042712
Balabac,7.9868,117.0645,78.0,78.0,78.0,88,100,6.17,PH,1635042714
Verkhnevilyuysk,63.4453,120.3167,34.0,34.0,34.0,72,98,5.57,RU,1635042714
Jiayuguan City,39.8167,98.3,46.0,46.0,46.0,32,45,1.43,CN,1635042714
Isangel,-19.55,169.2667,81.0,81.0,81.0,78,75,4.12,VU,1635042715
Skegness,53.1436,0.3363,53.0,54.0,50.0,65,100,8.17,GB,1635042715
Killybegs,54.6333,-8.45,54.0,54.0,54.0,89,76,6.27,IE,1635042716
Half Moon Bay,37.4636,-122.4286,61.0,65.0,56.0,76,90,1.79,US,1635042717
Carnarvon,-24.8667,113.6333,75.0,75.0,75.0,69,0,6.69,AU,1635042718
Port Alfred,-33.5906,26.891,57.0,57.0,57.0,72,27,6.1,ZA,1635042719
Chatrā,24.2167,84.8667,68.0,68.0,68.0,63,0,1.33,IN,1635042719
Jizan,17.3333,42.6667,82.0,82.0,82.0,64,1,0.99,SA,1635042720
Bacolod City,10.6667,122.95,84.0,84.0,84.0,75,95,1.68,PH,1635042720
Honningsvåg,70.9821,25.9704,39.0,39.0,39.0,59,97,9.67,NO,1635042721
Prince Rupert,54.3161,-130.3201,46.0,46.0,46.0,76,96,7.2,CA,1635042667
New Norfolk,-42.7826,147.0587,52.0,56.0,50.0,51,100,2.24,AU,1635042680
Vaini,-21.2,-175.2,79.0,79.0,79.0,73,20,4.12,TO,1635042723
Fara in Sabina,42.2089,12.7292,55.0,60.0,50.0,80,84,2.44,IT,1635042725
Qui Nhon,13.7667,109.2333,79.0,79.0,79.0,89,100,6.29,VN,1635042727
Chokurdakh,70.6333,147.9167,-2.0,-2.0,-2.0,97,99,2.45,RU,1635042728
Saint George,37.1041,-113.5841,66.0,69.0,61.0,34,1,0.45,US,1635042661
Nizhniy Tsasuchey,50.5167,115.1333,47.0,47.0,47.0,34,46,2.95,RU,1635042729
Kungurtug,50.5994,97.5228,35.0,35.0,35.0,49,40,0.55,RU,1635042730
Ginir,7.1333,40.7,55.0,55.0,55.0,57,18,2.67,ET,1635042730
Lodja,-3.4833,23.4333,69.0,69.0,69.0,99,100,1.16,CD,1635042731
Jalu,29.0331,21.5482,69.0,69.0,69.0,41,17,4.73,LY,1635042709
Quelimane,-17.8786,36.8883,75.0,75.0,75.0,94,0,4.12,MZ,1635042732
Hilo,19.7297,-155.09,77.0,80.0,73.0,70,20,3.6,US,1635042636
Pringsewu,-5.3582,104.9744,88.0,88.0,88.0,57,80,1.71,ID,1635042734
Nadym,65.5333,72.5167,26.0,26.0,26.0,89,18,7.82,RU,1635042735
Bredasdorp,-34.5322,20.0403,49.0,49.0,49.0,81,59,2.06,ZA,1635042597
Souillac,-20.5167,57.5167,74.0,75.0,74.0,83,40,5.14,MU,1635042736
Chumikan,54.7183,135.315,44.0,44.0,44.0,61,90,6.67,RU,1635042461
Longyan,25.1072,117.0225,60.0,60.0,60.0,93,100,1.57,CN,1635042738
Ribeira Grande,38.5167,-28.7,67.0,67.0,67.0,63,64,4.98,PT,1635042738
Hualmay,-11.0964,-77.6139,63.0,63.0,63.0,84,35,4.59,PE,1635042739
Qaanaaq,77.484,-69.3632,-2.0,-2.0,-2.0,59,0,3.52,GL,1635042739
Butaritari,3.0707,172.7902,81.0,81.0,81.0,72,40,3.49,KI,1635042740
Candeias,-20.7676,-45.2764,68.0,68.0,68.0,69,50,5.58,BR,1635042741
Qaqortoq,60.7167,-46.0333,34.0,34.0,34.0,64,21,2.41,GL,1635042741
Nishihara,26.1842,127.7558,78.0,78.0,77.0,65,75,4.63,JP,1635042484
Upernavik,72.7868,-56.1549,19.0,19.0,19.0,90,100,5.97,GL,1635042742
Vallenar,-28.5708,-70.7581,62.0,62.0,62.0,53,0,1.37,CL,1635042529
Tiksi,71.6872,128.8694,3.0,3.0,3.0,94,100,4.58,RU,1635042743
Kumul,42.8,93.45,49.0,49.0,49.0,42,100,1.08,CN,1635042743
Dayong,25.0209,118.2898,71.0,74.0,71.0,77,100,2.23,CN,1635042744
Cidreira,-30.1811,-50.2056,65.0,65.0,65.0,93,100,3.65,BR,1635042745
Saint-Philippe,-21.3585,55.7679,72.0,73.0,67.0,84,40,6.22,RE,1635042563
Alice Springs,-23.7,133.8833,78.0,78.0,78.0,22,75,7.72,AU,1635042616
Oxford,51.7522,-1.256,51.0,54.0,49.0,77,90,5.14,GB,1635042748
Petropavlovsk-Kamchatskiy,53.0452,158.6483,43.0,43.0,43.0,61,75,3.0,RU,1635042736
Sal Rei,16.1833,-22.9167,78.0,78.0,78.0,74,45,7.54,CV,1635042748
Saint Anthony,45.0205,-93.218,38.0,44.0,32.0,75,1,0.0,US,1635042751
Conceição do Araguaia,-8.2578,-49.2647,75.0,75.0,75.0,83,14,1.85,BR,1635042752
Nikolskoye,59.7035,30.7861,33.0,34.0,33.0,91,72,3.65,RU,1635042753
Port Elizabeth,-33.918,25.5701,56.0,56.0,56.0,76,0,5.66,ZA,1635042666
Atar,20.5169,-13.0499,78.0,78.0,78.0,19,11,3.39,MR,1635042759
College,64.8569,-147.8028,31.0,35.0,25.0,80,75,0.0,US,1635042759
Dalbandin,28.8947,64.4101,58.0,58.0,58.0,16,0,2.31,PK,1635042760
Tucumcari,35.1717,-103.725,73.0,73.0,65.0,18,1,6.69,US,1635042763
Vila Franca do Campo,37.7167,-25.4333,65.0,65.0,65.0,83,98,2.53,PT,1635042501
Pindi Gheb,33.2402,72.2661,64.0,64.0,64.0,68,39,3.5,PK,1635042767
San Juan,-31.5375,-68.5364,66.0,66.0,66.0,24,0,3.5,AR,1635042768
Regente Feijó,-22.2214,-51.3028,65.0,65.0,65.0,100,75,10.29,BR,1635042769
Mailsi,29.8003,72.1758,70.0,70.0,70.0,72,0,4.65,PK,1635042769
Cedartown,34.0537,-85.255,53.0,56.0,51.0,94,0,0.85,US,1635042770
Omsukchan,62.5333,155.8,5.0,5.0,5.0,88,33,1.5,RU,1635042499
Luganville,-15.5333,167.1667,83.0,83.0,83.0,73,34,3.94,VU,1635042771
Ambovombe,-25.1667,46.0833,70.0,70.0,70.0,79,0,1.76,MG,1635042773
Mahébourg,-20.4081,57.7,74.0,75.0,74.0,83,40,5.14,MU,1635042773
Severo-Yeniseyskiy,60.3725,93.0408,33.0,33.0,33.0,96,100,5.95,RU,1635042774
Dundalk,39.2507,-76.5205,52.0,57.0,48.0,88,40,0.0,US,1635042598
Monroe,43.1501,-77.6831,39.0,44.0,36.0,88,75,0.0,US,1635042666
Khonsa,27.0167,95.5667,71.0,71.0,71.0,78,0,1.23,IN,1635042776
Khuzdar,27.7384,66.6434,61.0,61.0,61.0,14,0,1.56,PK,1635042777
Maniitsoq,65.4167,-52.9,26.0,26.0,26.0,48,100,2.5,GL,1635042778
Dikson,73.5069,80.5464,9.0,9.0,9.0,86,100,6.98,RU,1635042779
Vao,-22.6667,167.4833,73.0,73.0,73.0,74,3,6.12,NC,1635042781
Stromness,58.965,-3.296,53.0,56.0,53.0,88,100,5.81,GB,1635042781
Bambous Virieux,-20.3428,57.7575,74.0,75.0,74.0,83,40,5.14,MU,1635042745
Udachny,66.4167,112.4,27.0,27.0,27.0,92,100,9.38,RU,1635042783
Cafelândia,-21.8025,-49.61,79.0,79.0,79.0,50,88,3.7,BR,1635042784
Lichuan,30.3,108.85,57.0,57.0,57.0,60,83,0.24,CN,1635042785
Bathsheba,13.2167,-59.5167,83.0,83.0,83.0,69,20,9.26,BB,1635042786
Fortuna,40.5982,-124.1573,58.0,60.0,54.0,90,90,1.34,US,1635042786
Lakes Entrance,-37.8811,147.981,61.0,62.0,61.0,67,45,9.05,AU,1635042787
Gawler,-34.6,138.7333,65.0,68.0,61.0,51,6,5.32,AU,1635042615
Usinsk,65.9939,57.5281,18.0,18.0,18.0,94,12,4.36,RU,1635042789
Makubetsu,45.3714,141.8211,59.0,59.0,59.0,58,20,9.77,JP,1635042789
Tessalit,20.1986,1.0114,81.0,81.0,81.0,23,50,4.3,ML,1635042773
Touros,-5.1989,-35.4608,80.0,80.0,80.0,80,68,5.5,BR,1635042790
Tasiilaq,65.6145,-37.6368,32.0,32.0,32.0,96,100,2.91,GL,1635042778
São José da Coroa Grande,-8.8978,-35.1478,78.0,78.0,78.0,85,32,4.58,BR,1635042792
Broken Hill,-31.95,141.4333,66.0,66.0,66.0,34,0,5.66,AU,1635042733
Santa Lucía,27.9117,-15.5407,62.0,62.0,61.0,68,75,5.14,ES,1635042795
Kaitangata,-46.2817,169.8464,59.0,59.0,59.0,70,84,2.88,NZ,1635042724
Vostok,46.4856,135.8833,47.0,47.0,47.0,43,0,3.68,RU,1635042798
Saint-Augustin,51.226,-58.6502,41.0,41.0,41.0,94,100,5.33,CA,1635042798
Portales,34.1862,-103.3344,72.0,73.0,68.0,21,64,6.16,US,1635042798
Marystown,47.1666,-55.1483,59.0,59.0,59.0,100,100,2.97,CA,1635042763
Nynäshamn,58.9034,17.9479,34.0,35.0,32.0,77,100,4.31,SE,1635042799
North Bend,43.4065,-124.2243,53.0,55.0,51.0,97,90,0.0,US,1635042799
Flinders,-34.5833,150.8552,68.0,74.0,66.0,54,31,5.74,AU,1635042802
Maragogi,-9.0122,-35.2225,78.0,78.0,78.0,85,26,4.61,BR,1635042570
Muros,42.7762,-9.0603,47.0,57.0,46.0,95,1,2.71,ES,1635042587
Natal,-5.795,-35.2094,81.0,81.0,79.0,78,40,5.14,BR,1635042587
Khovd,48.0056,91.6419,39.0,39.0,39.0,29,18,1.82,MN,1635042809
Oddur,4.1213,43.8894,71.0,71.0,71.0,93,2,3.85,SO,1635042809
Waipawa,-41.4122,175.5153,58.0,60.0,56.0,65,97,3.54,NZ,1635042810
Lompoc,34.6391,-120.4579,57.0,64.0,54.0,84,1,9.39,US,1635042810
Codrington,-38.2667,141.9667,53.0,53.0,53.0,63,98,6.71,AU,1635042811
Saint Paul Harbor,57.79,-152.4072,42.0,42.0,42.0,87,98,12.02,US,1635042740
Hiroshima,34.3963,132.4594,64.0,69.0,61.0,50,99,2.13,JP,1635042567
Namtsy,62.7161,129.6658,29.0,29.0,29.0,99,100,1.22,RU,1635042814
Ardabil,38.2498,48.2933,46.0,46.0,46.0,76,44,0.37,IR,1635042815
Pascagoula,30.3658,-88.5561,66.0,72.0,63.0,95,1,0.0,US,1635042755
Jumla,29.2747,82.1838,56.0,56.0,56.0,59,1,0.85,NP,1635042817
Faanui,-16.4833,-151.75,77.0,77.0,77.0,85,82,6.72,PF,1635042771
Arkhara,49.4212,130.0842,49.0,49.0,49.0,48,6,2.02,RU,1635042821
Mezen',65.8522,44.24,30.0,30.0,30.0,90,100,2.88,RU,1635042822
Kavieng,-2.5744,150.7967,86.0,86.0,86.0,68,18,5.45,PG,1635042823
Rockland,41.1668,-74.0496,49.0,55.0,44.0,83,74,2.09,US,1635042824
Kysyl-Syr,63.8986,122.7617,34.0,34.0,34.0,84,99,5.09,RU,1635042824
Paita,-5.0892,-81.1144,65.0,65.0,65.0,83,96,5.51,PE,1635042825
Ponta do Sol,32.6667,-17.1,68.0,70.0,68.0,64,15,2.71,PT,1635042826
Kuching,1.55,110.3333,86.0,86.0,86.0,74,40,1.03,MY,1635042827
Manaus,-3.1019,-60.025,79.0,79.0,76.0,89,0,1.03,BR,1635042802
Aleksandro-Nevskiy,53.4751,40.2095,33.0,33.0,33.0,78,65,4.38,RU,1635042827
Bānapur,19.7833,85.1833,79.0,79.0,79.0,62,36,1.24,IN,1635042830
Pointe Michel,15.25,-61.3833,81.0,81.0,81.0,75,25,4.99,DM,1635042573
Sorong,-0.8833,131.25,83.0,83.0,83.0,78,100,3.6,ID,1635042831
Okato,-39.2,173.8833,55.0,60.0,55.0,92,100,5.57,NZ,1635042834
Pevek,69.7008,170.3133,9.0,9.0,9.0,91,100,2.36,RU,1635042834
San Patricio,28.017,-97.5169,77.0,79.0,74.0,71,2,4.19,US,1635042808
Charters Towers,-20.1,146.2667,96.0,96.0,96.0,26,46,5.68,AU,1635042837
Eisenstadt,47.8457,16.5233,38.0,44.0,33.0,69,3,0.36,AT,1635042837
Namatanai,-3.6667,152.4333,84.0,84.0,84.0,71,78,3.18,PG,1635042808
Baní,18.2833,-70.3333,80.0,80.0,80.0,78,48,3.6,DO,1635042839
Bengkulu,-3.8004,102.2655,79.0,79.0,79.0,83,99,1.71,ID,1635042839
Pyaozerskiy,65.8333,31.1667,20.0,20.0,20.0,86,27,3.01,RU,1635042840
Leh,34.1667,77.5833,31.0,31.0,31.0,85,100,1.31,IN,1635042840
Abay,49.6311,72.8539,43.0,43.0,43.0,51,6,6.35,KZ,1635042841
Innisfail,-17.5333,146.0333,94.0,94.0,94.0,51,6,3.7,AU,1635042842
Yar-Sale,66.8333,70.8333,28.0,28.0,28.0,90,96,5.58,RU,1635042794
Kendal,54.3268,-2.7476,51.0,52.0,50.0,83,100,8.65,GB,1635042846
Ilulissat,69.2167,-51.1,23.0,23.0,23.0,74,90,6.69,GL,1635042847
Pimentel,-6.8367,-79.9342,63.0,63.0,63.0,87,55,5.77,PE,1635042825
Rocha,-34.4833,-54.3333,52.0,52.0,52.0,94,24,3.14,UY,1635042850
Geraldton,-28.7667,114.6,85.0,85.0,77.0,39,0,4.63,AU,1635042671
Bandarbeyla,9.4942,50.8122,78.0,78.0,78.0,73,46,1.91,SO,1635042718
La Sarre,48.8002,-79.1996,32.0,32.0,32.0,91,93,1.8,CA,1635042604
Chipata,-13.6333,32.65,73.0,73.0,73.0,44,38,4.04,ZM,1635042854
Russell,32.3502,-85.1999,53.0,58.0,53.0,82,1,0.0,US,1635042844
Makakilo City,21.3469,-158.0858,81.0,83.0,76.0,54,1,4.12,US,1635042857
Hurghada,27.2574,33.8129,70.0,70.0,70.0,52,0,5.14,EG,1635042857
Svetlaya,46.5389,138.3297,55.0,55.0,55.0,45,0,1.64,RU,1635042859
Pandan,14.0453,124.1694,78.0,78.0,78.0,91,100,3.55,PH,1635042860
Hamilton,39.1834,-84.5333,54.0,55.0,52.0,89,90,0.0,US,1635042755
Te Anau,-45.4167,167.7167,54.0,54.0,54.0,94,100,0.26,NZ,1635042849
Curup,-3.4667,102.5333,71.0,71.0,71.0,96,99,0.71,ID,1635042861
Arrondissement de Saint-Denis,48.9167,2.3333,40.0,43.0,36.0,91,0,2.06,FR,1635042862
Kupang,-10.1667,123.5833,90.0,90.0,90.0,62,75,3.6,ID,1635042862
Vidim,56.4088,103.1106,35.0,35.0,35.0,92,100,5.36,RU,1635042863
Marsá Maţrūḩ,31.3525,27.2453,65.0,65.0,65.0,72,40,2.57,EG,1635042789
Sjenica,43.2731,19.9994,37.0,37.0,37.0,91,100,1.98,RS,1635042864
Grindavik,63.8424,-22.4338,47.0,47.0,46.0,93,75,4.12,IS,1635042865
Bardsīr,29.9227,56.5743,36.0,36.0,36.0,35,5,2.06,IR,1635042866
Fairbanks,64.8378,-147.7164,31.0,35.0,25.0,81,1,0.0,US,1635042733
San Clemente,33.427,-117.612,60.0,66.0,57.0,84,76,1.31,US,1635042866
Dhārchula,29.85,80.5333,66.0,66.0,66.0,56,0,0.95,IN,1635042867
Puerto Cabezas,14.0351,-83.3888,79.0,79.0,79.0,88,58,3.11,NI,1635042867
Qasigiannguit,68.8193,-51.1922,23.0,23.0,23.0,95,100,2.17,GL,1635042815
Esim,4.8699,-2.2405,77.0,77.0,77.0,87,70,0.99,GH,1635042671
Omboué,-1.5746,9.2618,75.0,75.0,75.0,91,100,1.39,GA,1635042790
Kjøllefjord,70.9457,27.3465,37.0,37.0,37.0,64,100,8.26,NO,1635042873
Nabire,-3.3667,135.4833,82.0,82.0,82.0,80,91,1.34,ID,1635042873
Sestri Levante,44.2732,9.3968,58.0,61.0,53.0,73,2,0.45,IT,1635042875
Camacha,33.0833,-16.3333,67.0,67.0,66.0,60,75,3.6,PT,1635042877
Bilma,18.6853,12.9164,79.0,79.0,79.0,16,27,2.5,NE,1635042877
Cockburn Town,21.4612,-71.1419,83.0,83.0,83.0,69,95,8.69,TC,1635042879
Quijingue,-10.7525,-39.2092,71.0,71.0,71.0,96,71,1.93,BR,1635042879
Departamento de Maldonado,-34.6667,-54.9167,51.0,53.0,51.0,89,8,2.21,UY,1635042880
Izumo,35.3667,132.7667,62.0,63.0,62.0,48,40,1.03,JP,1635042880
Srednekolymsk,67.45,153.6833,-2.0,-2.0,-2.0,88,36,1.42,RU,1635042881
Warwick,41.7001,-71.4162,49.0,53.0,43.0,71,75,2.57,US,1635042881
Teyateyaneng,-29.1472,27.7489,45.0,45.0,45.0,74,0,1.22,LS,1635042882
Shimoda,34.6667,138.95,65.0,65.0,65.0,61,95,4.47,JP,1635042883
Tigzirt,36.8886,4.1198,65.0,65.0,65.0,72,88,2.01,DZ,1635042883
Banepā,27.6298,85.5214,65.0,65.0,65.0,88,75,1.03,NP,1635042883
Shalya,57.2471,58.7298,37.0,37.0,37.0,92,83,2.81,RU,1635042884
Dingle,10.9995,122.6711,85.0,85.0,85.0,72,66,1.48,PH,1635042805
Arrondissement d'Istres,43.5041,4.9953,49.0,53.0,47.0,83,20,3.6,FR,1635042884
Beringovskiy,63.05,179.3167,13.0,13.0,13.0,73,2,3.36,RU,1635042759
Vila Velha,-20.3297,-40.2925,73.0,73.0,73.0,88,75,3.6,BR,1635042885
Trairi,-3.2778,-39.2689,80.0,80.0,80.0,79,22,4.63,BR,1635042603
Khandyga,62.6667,135.6,19.0,19.0,19.0,91,100,2.99,RU,1635042886
Miraflores,19.2167,-98.8083,63.0,66.0,54.0,95,100,2.17,MX,1635042887
Cayenne,4.9333,-52.3333,78.0,78.0,75.0,91,90,1.34,GF,1635042808
North Platte,41.1239,-100.7654,48.0,49.0,46.0,89,90,4.63,US,1635042887
Bintulu,3.1667,113.0333,84.0,85.0,84.0,70,20,2.24,MY,1635042888
Port Hedland,-20.3167,118.5667,99.0,99.0,99.0,10,26,8.23,AU,1635042888
Oranjestad,12.524,-70.027,84.0,84.0,84.0,74,20,7.72,AW,1635042794
Baculin,7.4525,126.5842,84.0,84.0,84.0,74,100,1.05,PH,1635042890
Nicolás Bravo,18.45,-88.9167,74.0,74.0,74.0,99,91,0.83,MX,1635042890
Ţahţā,26.7693,31.5021,67.0,67.0,61.0,56,0,4.59,EG,1635042890
Stryn,61.9045,6.7226,42.0,42.0,42.0,89,100,4.87,NO,1635042891
Lüderitz,-26.6481,15.1594,56.0,56.0,56.0,69,0,6.74,NA,1635042891
Krasnopillya,50.7746,35.2597,36.0,36.0,36.0,80,50,3.05,UA,1635042892
Teya,60.3778,92.6267,37.0,37.0,37.0,97,100,5.13,RU,1635042892
Saldanha,-33.0117,17.9442,48.0,48.0,48.0,72,0,3.89,ZA,1635042894
Bubaque,11.2833,-15.8333,82.0,82.0,82.0,74,100,2.73,GW,1635042894
Mackay,-21.15,149.2,88.0,91.0,86.0,55,55,5.66,AU,1635042894
Los Llanos de Aridane,28.6585,-17.9182,64.0,64.0,64.0,78,90,1.79,ES,1635042760
Wonthaggi,-38.6044,145.5913,57.0,59.0,55.0,58,89,7.45,AU,1635042896
Bitung,1.4451,125.1824,90.0,90.0,90.0,66,100,2.16,ID,1635042896
Port-Gentil,-0.7193,8.7815,78.0,78.0,78.0,84,100,3.51,GA,1635042822
Matara,5.9485,80.5353,84.0,84.0,84.0,66,61,5.34,LK,1635042898
Cartagena del Chairá,1.3349,-74.8429,74.0,74.0,74.0,88,78,1.42,CO,1635042898
Portland,45.5234,-122.6762,53.0,56.0,51.0,95,75,0.45,US,1635042230
Ouésso,1.6136,16.0517,71.0,71.0,71.0,98,100,1.03,CG,1635042899
Vestmannaeyjar,63.4427,-20.2734,47.0,47.0,47.0,83,100,7.32,IS,1635042899
Salalah,17.0151,54.0924,73.0,73.0,73.0,68,0,2.57,OM,1635042900
Kununurra,-15.7667,128.7333,95.0,95.0,95.0,43,2,3.09,AU,1635042902
Gobabis,-22.45,18.9667,54.0,54.0,54.0,44,0,5.69,NA,1635042839
Fort Nelson,58.8053,-122.7002,33.0,33.0,33.0,86,40,2.57,CA,1635042615
Labuhan,-6.8844,112.2051,89.0,89.0,89.0,59,60,1.19,ID,1635042807
Bairiki Village,1.3292,172.9752,86.0,86.0,86.0,58,40,2.57,KI,1635042904
Mayo,38.8876,-76.5119,53.0,58.0,47.0,87,1,0.89,US,1635042906
Kloulklubed,7.0419,134.2556,87.0,87.0,87.0,71,9,2.08,PW,1635042906
Irbeyskoye,55.6428,95.4522,43.0,43.0,43.0,60,100,8.83,RU,1635042907
Lethem,3.3803,-59.7968,80.0,80.0,80.0,73,100,4.22,GY,1635042908
Bukachacha,52.9833,116.9167,41.0,41.0,41.0,55,86,1.51,RU,1635042909
Cuamba,-14.8031,36.5372,72.0,72.0,72.0,46,81,2.07,MZ,1635042909
Aksu,41.1231,80.2644,50.0,50.0,50.0,23,4,1.92,CN,1635042910
Ketchikan,55.3422,-131.6461,44.0,44.0,44.0,88,100,5.59,US,1635042900
Alofi,-19.0595,-169.9187,79.0,79.0,79.0,50,99,8.75,NU,1635042911
Safaga,26.7292,33.9365,70.0,70.0,70.0,55,2,7.96,EG,1635042911
Hong Kong,22.2855,114.1577,74.0,78.0,68.0,71,10,0.45,HK,1635042912
Merauke,-8.4667,140.3333,86.0,86.0,86.0,63,72,6.84,ID,1635042914
Yeniseysk,58.4497,92.1703,40.0,40.0,40.0,96,100,5.61,RU,1635042915
Novoagansk,61.9449,76.6625,39.0,39.0,39.0,87,100,6.64,RU,1635042916
Trat,12.5,102.5,82.0,87.0,81.0,73,89,6.21,TH,1635042918
Igarka,67.4667,86.5833,31.0,31.0,31.0,97,100,5.02,RU,1635042920
Koslan,63.4564,48.8989,24.0,24.0,24.0,92,100,1.42,RU,1635042922
Illela,13.7292,5.2975,79.0,79.0,79.0,65,100,1.72,NG,1635042923
Iqaluit,63.7506,-68.5145,32.0,32.0,32.0,80,90,7.6,CA,1635042923
Caniço,32.6333,-16.85,69.0,71.0,68.0,77,75,6.17,PT,1635042924
Cabinda,-5.55,12.2,77.0,77.0,77.0,86,100,2.7,AO,1635042924
Mānikganj,23.8553,90.0125,81.0,81.0,81.0,62,1,2.08,BD,1635042925
Valparaíso,-33.0393,-71.6273,59.0,59.0,47.0,54,0,3.6,CL,1635042817
Itupiranga,-5.1347,-49.3267,73.0,73.0,73.0,92,45,0.35,BR,1635042926
Bella Vista,36.4295,-94.2316,69.0,72.0,65.0,78,1,4.02,US,1635042926
Tamandaré,-8.7597,-35.1047,77.0,77.0,77.0,86,42,4.3,BR,1635042926
Elizabethton,36.3487,-82.2107,56.0,61.0,49.0,80,90,0.0,US,1635042808
Urucará,-2.5364,-57.76,77.0,77.0,77.0,89,99,1.17,BR,1635042928
Abasolo,20.45,-101.5167,65.0,65.0,65.0,58,100,0.41,MX,1635042928
Keelung,25.1283,121.7419,70.0,71.0,68.0,93,100,5.64,TW,1635042677
Yebaishou,41.3975,119.6408,55.0,55.0,55.0,37,1,2.37,CN,1635042929
Mindelo,16.8901,-24.9804,77.0,77.0,77.0,73,20,11.32,CV,1635042932
Siilinjärvi,63.0833,27.6667,23.0,23.0,23.0,93,0,3.6,FI,1635042934
Acatlán,20.15,-98.45,56.0,56.0,56.0,92,100,1.16,MX,1635042934
Dicabisagan,17.0818,122.4157,79.0,79.0,79.0,87,100,2.01,PH,1635042937
Yeppoon,-23.1333,150.7333,91.0,91.0,91.0,69,98,5.22,AU,1635042937
Leningradskiy,69.3833,178.4167,10.0,10.0,10.0,95,100,3.75,RU,1635042790
Kargasok,59.0556,80.8572,44.0,44.0,44.0,76,97,8.83,RU,1635042938
Saiha,22.4833,92.9667,80.0,80.0,80.0,54,25,0.49,IN,1635042938
Guatire,10.4762,-66.5427,78.0,79.0,78.0,98,88,1.11,VE,1635042939
Shetpe,44.1667,52.1167,47.0,47.0,47.0,26,17,3.08,KZ,1635042939
Anadyr,64.75,177.4833,2.0,2.0,2.0,85,75,4.0,RU,1635042940
Oyón,-10.6681,-76.7731,50.0,50.0,50.0,77,21,1.22,PE,1635042940
Provideniya,64.3833,-173.3,24.0,24.0,24.0,78,100,3.88,RU,1635042941
Tura,25.5198,90.2201,76.0,76.0,76.0,62,19,0.4,IN,1635042898
Aquiraz,-3.9014,-38.3911,81.0,81.0,81.0,81,31,4.64,BR,1635042943
Castlegar,49.2998,-117.6689,45.0,47.0,45.0,94,100,1.34,CA,1635042944
Bharatpur,27.2167,77.4833,75.0,75.0,75.0,54,8,2.07,IN,1635042724
Marsala,37.7966,12.4352,67.0,70.0,66.0,94,0,1.54,IT,1635042945
Monrovia,6.3005,-10.7969,76.0,76.0,76.0,89,98,2.15,LR,1635042657
Fukuechō,32.6881,128.8419,65.0,65.0,65.0,55,0,3.6,JP,1635042946
Snezhnogorsk,69.1933,33.2531,21.0,21.0,21.0,87,50,7.67,RU,1635042947
Conde,-7.2597,-34.9075,78.0,78.0,78.0,83,75,2.57,BR,1635042947
Egvekinot,66.3167,-179.1667,11.0,11.0,11.0,86,100,3.01,RU,1635042914
Lagoa,39.05,-27.9833,67.0,67.0,67.0,59,81,5.73,PT,1635042948
Sangar,63.9242,127.4739,20.0,20.0,20.0,95,100,3.85,RU,1635042948
Nyaunglebin,17.95,96.7333,81.0,81.0,81.0,80,100,1.57,MM,1635042949
Pisco,-13.7,-76.2167,61.0,63.0,61.0,82,48,6.17,PE,1635042950
Sulęcin,52.4443,15.1168,34.0,39.0,34.0,95,51,1.72,PL,1635042950
Khāsh,28.2211,61.2158,55.0,55.0,55.0,12,0,0.2,IR,1635042951
Kasempa,-13.4584,25.8338,71.0,71.0,71.0,51,94,0.73,ZM,1635042952
Darnah,32.767,22.6367,71.0,71.0,71.0,58,7,5.23,LY,1635042953
Caucayá,-0.1934,-74.7819,76.0,76.0,76.0,82,56,1.24,CO,1635042953
Gwadar,25.1216,62.3254,78.0,78.0,78.0,62,0,0.79,PK,1635042954
Mossamedes,-15.1961,12.1522,64.0,64.0,64.0,73,78,2.37,AO,1635042954
Bida,9.0833,6.0167,74.0,74.0,74.0,87,95,0.58,NG,1635042956
Andapa,-14.65,49.65,70.0,70.0,70.0,98,99,0.35,MG,1635042956
Paraúna,-16.9478,-50.4486,78.0,78.0,78.0,56,44,5.32,BR,1635042957
Murchison,-41.8,172.3333,54.0,54.0,54.0,91,100,1.57,NZ,1635042957
Muli,2.9167,73.5667,83.0,83.0,83.0,74,94,5.96,MV,1635042927
Stary Krym,45.0333,35.1,51.0,51.0,51.0,89,100,2.03,UA,1635042961
Katsuura,35.1333,140.3,62.0,63.0,62.0,51,13,2.82,JP,1635042963
Itzehoe,53.921,9.5153,44.0,47.0,40.0,84,100,3.72,DE,1635042964
Gijang,35.2442,129.2139,62.0,62.0,62.0,36,100,0.29,KR,1635042965
Tyup,42.7276,78.3648,36.0,36.0,36.0,51,1,0.23,KG,1635042965
Berbera,10.4396,45.0143,81.0,81.0,81.0,61,6,2.33,SO,1635042966
Lichtenburg,-26.152,26.1597,49.0,49.0,49.0,67,0,5.16,ZA,1635042967
Fare,-16.7,-151.0167,78.0,78.0,78.0,83,88,6.52,PF,1635042967
Araouane,18.9048,-3.5265,83.0,83.0,83.0,23,14,3.68,ML,1635042968
Nālūt,30.3333,10.85,68.0,68.0,68.0,61,99,3.34,LY,1635042968
Guarapari,-20.6667,-40.4975,73.0,73.0,73.0,93,8,6.02,BR,1635042823
Huanta,-12.9333,-74.25,57.0,57.0,57.0,74,100,0.78,PE,1635042970
Mafinga,-7.25,35.0667,72.0,72.0,72.0,53,37,2.07,TZ,1635042970
Itarema,-2.9248,-39.9167,80.0,80.0,80.0,80,72,5.28,BR,1635042971
Cabo San Lucas,22.8909,-109.9124,79.0,82.0,76.0,75,1,0.89,MX,1635042972
Opuwo,-18.0607,13.84,63.0,63.0,63.0,28,6,0.46,NA,1635042972
Mubende,0.5606,31.39,60.0,60.0,60.0,99,83,0.44,UG,1635042748
Port Hawkesbury,45.6169,-61.3485,60.0,62.0,59.0,100,90,1.34,CA,1635042972
Belaya Gora,68.5333,146.4167,-3.0,-3.0,-3.0,87,88,1.68,RU,1635042974
Mamurras,41.5775,19.6922,59.0,59.0,59.0,94,40,1.54,AL,1635042976
Sabang,5.8933,95.3214,82.0,82.0,82.0,74,100,1.32,ID,1635042698
Ligayan,4.6533,119.4706,82.0,82.0,82.0,72,100,2.54,PH,1635042977
Vikhorevka,56.1201,101.1636,39.0,39.0,38.0,80,100,4.81,RU,1635042979
San Quintín,30.4833,-115.95,59.0,59.0,59.0,75,7,8.34,MX,1635042981
Caravelas,-17.7125,-39.2481,74.0,74.0,74.0,90,95,1.49,BR,1635042782
Biak,-0.9131,122.8766,84.0,84.0,84.0,60,45,1.13,ID,1635042976
Severo-Kuril'sk,50.6789,156.125,41.0,41.0,41.0,84,67,4.88,RU,1635042981
Tete,-16.1564,33.5867,77.0,77.0,77.0,41,0,0.0,MZ,1635042982
Aklavik,68.2191,-135.0107,29.0,29.0,29.0,95,82,1.38,CA,1635042848
George Town,5.4112,100.3354,84.0,86.0,84.0,79,20,1.34,MY,1635042798
Izhma,65.0083,53.9113,22.0,22.0,22.0,97,31,1.97,RU,1635042983
Lianhe,47.1333,129.2667,55.0,55.0,55.0,36,0,2.04,CN,1635042984
Lashio,22.9333,97.75,66.0,66.0,66.0,98,100,0.74,MM,1635042985
Felanitx,39.4696,3.1483,55.0,64.0,49.0,80,53,3.96,ES,1635042987
Amparafaravola,-17.5833,48.2167,68.0,68.0,68.0,88,4,1.17,MG,1635042987
Port Lincoln,-34.7333,135.8667,61.0,61.0,61.0,58,13,4.78,AU,1635042988
Ngunguru,-35.6167,174.5,65.0,65.0,65.0,96,100,9.6,NZ,1635042988
Ugoofaaru,5.6667,73.0,82.0,82.0,82.0,70,99,5.69,MV,1635042990
Aasiaat,68.7098,-52.8699,11.0,11.0,11.0,95,76,1.79,GL,1635042990
Karasjok,69.4719,25.5112,23.0,23.0,23.0,90,37,1.56,NO,1635042992
Comodoro Rivadavia,-45.8667,-67.5,53.0,53.0,53.0,30,0,8.75,AR,1635042873
Rawson,-43.3002,-65.1023,56.0,56.0,56.0,31,2,8.73,AR,1635042994
Dzhebariki-Khaya,62.2167,135.8,22.0,22.0,22.0,87,100,2.84,RU,1635042995
Chimoré,-16.9833,-65.1333,83.0,83.0,83.0,56,99,1.0,BO,1635042997
Shaki,41.0833,47.1667,40.0,47.0,40.0,60,0,1.44,AZ,1635042998
San Luis,-33.295,-66.3356,57.0,57.0,57.0,28,0,3.25,AR,1635042916
Port Moresby,-9.4431,147.1797,89.0,89.0,89.0,66,40,5.14,PG,1635042912
Teeli,51.0333,90.2333,36.0,36.0,36.0,56,58,1.09,RU,1635043000
Baranchinskiy,58.1617,59.6991,39.0,39.0,39.0,87,82,4.15,RU,1635043001
Zyryanka,65.75,150.85,2.0,2.0,2.0,74,7,4.65,RU,1635042753
Clyde River,70.4692,-68.5914,17.0,17.0,17.0,84,92,5.16,CA,1635042878
Laas,46.6166,10.7002,38.0,40.0,38.0,46,2,0.86,IT,1635043002
Kuvshinovo,57.0295,34.1725,34.0,34.0,34.0,96,100,5.48,RU,1635042914
Sakaiminato,35.55,133.2333,63.0,63.0,63.0,48,20,1.54,JP,1635043003
Antalaha,-14.9003,50.2788,75.0,75.0,75.0,90,81,1.08,MG,1635043005
Xining,36.6167,101.7667,45.0,45.0,45.0,68,99,0.51,CN,1635043005
Bilibino,68.0546,166.4372,-9.0,-9.0,-9.0,99,87,0.77,RU,1635042738
Konibodom,40.2843,70.4426,46.0,46.0,46.0,31,0,2.48,TJ,1635043006
Sydney,-33.8679,151.2073,69.0,78.0,64.0,62,20,3.13,AU,1635042317
Seydi,39.4816,62.9137,47.0,47.0,47.0,40,0,3.97,TM,1635043007
Meulaboh,4.1363,96.1285,83.0,83.0,83.0,69,77,0.7,ID,1635043008
Velikiy Ustyug,60.7644,46.3106,35.0,35.0,35.0,98,100,2.37,RU,1635043008
Joshīmath,30.5667,79.5667,61.0,61.0,61.0,35,23,0.87,IN,1635043009
Linfen,36.0889,111.5189,57.0,57.0,57.0,48,6,1.62,CN,1635043010
Havelock,34.8791,-76.9013,59.0,66.0,53.0,92,0,1.73,US,1635042803
Doha,25.2867,51.5333,77.0,77.0,70.0,67,0,1.54,QA,1635043011
Broome,42.2506,-75.833,41.0,44.0,38.0,87,90,1.54,US,1635042788
Abū Zabad,12.35,29.25,83.0,83.0,83.0,32,56,3.05,SD,1635043012
Nizhnevartovsk,60.9344,76.5531,39.0,39.0,39.0,100,40,4.0,RU,1635043013
Mitsamiouli,-11.3847,43.2844,78.0,78.0,78.0,80,64,4.04,KM,1635043013
Lata,40.1629,-8.3327,48.0,48.0,47.0,67,0,1.1,PT,1635042766
Mahon,39.8885,4.2658,61.0,61.0,61.0,88,20,3.6,ES,1635042862
Ajdabiya,30.7554,20.2263,72.0,72.0,72.0,36,55,5.42,LY,1635043015
Palafrugell,41.9174,3.1631,53.0,55.0,48.0,53,0,3.75,ES,1635043015
Tacuatí,-23.45,-56.5833,70.0,70.0,70.0,99,100,2.13,PY,1635043015
Coquimbo,-29.9533,-71.3436,55.0,55.0,55.0,76,0,0.51,CL,1635043016
Kropotkin,45.4375,40.5756,54.0,54.0,54.0,91,100,1.75,RU,1635043016
Ahipara,-35.1667,173.1667,65.0,65.0,65.0,78,21,3.26,NZ,1635043017
Philadelphia,39.9523,-75.1638,51.0,54.0,47.0,87,1,0.89,US,1635042997
Abhā,18.2164,42.5053,52.0,55.0,52.0,32,0,0.0,SA,1635043019
Yining,29.0361,114.5636,66.0,66.0,66.0,56,8,1.15,CN,1635043019
Brooks,50.5834,-111.8851,42.0,43.0,41.0,87,96,3.6,CA,1635043020
Bonavista,48.6499,-53.1147,52.0,56.0,52.0,100,100,3.16,CA,1635043020
Velventós,40.2517,22.0631,56.0,58.0,56.0,87,92,1.03,GR,1635043021
Flin Flon,54.7682,-101.865,38.0,38.0,38.0,68,96,5.4,CA,1635043022
Conroe,30.3119,-95.456,70.0,72.0,68.0,92,67,3.37,US,1635043003
Derzhavīnsk,51.1,66.3167,44.0,44.0,44.0,73,24,6.93,KZ,1635043023
Mossendjo,-2.9506,12.7261,69.0,69.0,69.0,100,100,0.54,CG,1635042822
Dalaba,10.7,-12.25,62.0,62.0,62.0,94,100,0.78,GN,1635043024
Partyzany,46.3314,34.7503,48.0,48.0,48.0,64,94,4.11,UA,1635043024
Huntsville,34.7304,-86.5861,57.0,61.0,53.0,86,1,0.45,US,1635042849
San Jose,37.3394,-121.895,61.0,65.0,56.0,65,90,4.12,US,1635042897
Beaver Falls,40.752,-80.3192,46.0,50.0,41.0,93,90,1.54,US,1635043026
Berlevåg,70.8578,29.0864,37.0,37.0,37.0,63,91,9.8,NO,1635042876
São Filipe,14.8961,-24.4956,79.0,79.0,79.0,68,10,4.07,CV,1635043026
The Pas,53.8251,-101.2541,37.0,37.0,37.0,81,90,2.57,CA,1635042957
Havre-St-Pierre,50.2334,-63.5986,45.0,47.0,45.0,100,90,2.57,CA,1635042772
Malayal,7.208,121.942,84.0,84.0,84.0,75,98,2.62,PH,1635043028
Akdepe,42.0551,59.3788,43.0,43.0,36.0,38,0,4.33,TM,1635043028
Papetoai,-17.4961,-149.8729,80.0,80.0,80.0,89,100,9.17,PF,1635043030
Laguna,38.421,-121.4238,59.0,63.0,56.0,76,90,3.09,US,1635043030
Shirokiy,49.758,129.523,49.0,49.0,49.0,48,9,2.8,RU,1635043030
Yumen,40.2833,97.2,46.0,46.0,46.0,30,78,2.11,CN,1635043031
Awjilah,29.1081,21.2869,69.0,69.0,69.0,39,12,4.84,LY,1635042785
Mahanoro,-19.9,48.8,74.0,74.0,74.0,92,10,3.18,MG,1635043032
Tsabong,-26.0217,22.401,56.0,56.0,56.0,59,0,3.76,BW,1635043032
Tuskegee,32.424,-85.6916,56.0,61.0,55.0,100,21,1.21,US,1635043032
Solapur,17.6833,75.9167,78.0,78.0,78.0,69,25,3.66,IN,1635043033
Adré,13.4667,22.2,75.0,75.0,75.0,24,7,5.56,TD,1635043034
Zhigansk,66.7697,123.3711,23.0,23.0,23.0,92,90,4.71,RU,1635043034
Krasnosel'kup,65.7,82.4667,33.0,33.0,33.0,98,100,6.13,RU,1635043036
Sijunjung,-0.6876,100.9537,81.0,81.0,81.0,84,86,0.71,ID,1635043036
Karpathos,35.507,27.2132,68.0,68.0,68.0,83,0,3.6,GR,1635043038
Hof,50.3167,11.9167,31.0,34.0,26.0,87,1,1.79,DE,1635043038
Bone,51.9669,12.1396,37.0,39.0,34.0,93,23,2.51,DE,1635043038
Shenjiamen,29.9576,122.298,66.0,66.0,66.0,68,99,6.37,CN,1635042797
Yanam,16.7333,82.2167,81.0,81.0,81.0,70,99,2.25,IN,1635042760
Casa Nova,-9.4167,-41.1333,79.0,79.0,79.0,70,37,0.34,BR,1635043039
Kaeo,-35.1,173.7833,65.0,65.0,65.0,97,54,1.9,NZ,1635043041
Coyhaique,-45.5752,-72.0662,43.0,43.0,43.0,75,40,2.06,CL,1635043042
Calama,-22.4667,-68.9333,47.0,47.0,47.0,39,0,1.02,CL,1635043042
Mudu,31.252,120.5118,68.0,68.0,68.0,47,12,1.73,CN,1635043043
Coruripe,-10.1256,-36.1756,78.0,78.0,78.0,85,47,5.52,BR,1635043044
Nuevo Ideal,24.8875,-105.0728,58.0,58.0,58.0,46,0,2.92,MX,1635043046
Tirumullaivāsal,11.2333,79.8333,83.0,83.0,83.0,73,43,2.61,IN,1635043046
Chapais,49.7834,-74.8492,34.0,34.0,34.0,93,100,0.36,CA,1635042877
Punta Alta,-38.8759,-62.0736,47.0,47.0,47.0,64,0,5.79,AR,1635043047
Autazes,-3.5797,-59.1306,77.0,77.0,77.0,87,86,1.1,BR,1635043047
Sørland,67.667,12.6934,43.0,43.0,43.0,70,100,5.92,NO,1635043048
Wundanyi,-3.4019,38.364,59.0,59.0,59.0,84,54,0.73,KE,1635043049
Salinópolis,-0.6136,-47.3561,80.0,80.0,80.0,83,100,4.23,BR,1635043050
Devils Lake,48.1128,-98.8651,35.0,36.0,34.0,82,1,4.47,US,1635043050
Chik Ballāpur,13.4342,77.7242,68.0,69.0,68.0,86,94,1.74,IN,1635043050
Rypefjord,70.6333,23.6667,32.0,32.0,32.0,86,75,3.09,NO,1635043051
Puqi,29.7167,113.8833,65.0,65.0,65.0,50,41,1.93,CN,1635043052
Nizhniy Kuranakh,58.8353,125.4869,39.0,39.0,39.0,82,100,4.26,RU,1635043053
Hay River,60.8156,-115.7999,41.0,41.0,41.0,81,40,6.17,CA,1635042888
Aljezur,37.3191,-8.8033,60.0,60.0,60.0,70,18,1.94,PT,1635043054
Sola,-13.8833,167.55,81.0,81.0,81.0,77,9,7.4,VU,1635042756
Lubao,14.9167,120.55,82.0,82.0,77.0,87,100,3.68,PH,1635043054
Raudeberg,61.9875,5.1352,49.0,49.0,47.0,86,100,4.92,NO,1635043056
Okhotsk,59.3833,143.3,24.0,24.0,24.0,63,1,7.42,RU,1635042856
Escuinapa,22.85,-105.8,81.0,81.0,81.0,88,0,1.45,MX,1635043056
Zhangye,38.9342,100.4517,50.0,50.0,50.0,45,62,4.39,CN,1635043057
Biłgoraj,50.5411,22.722,39.0,41.0,35.0,92,33,2.8,PL,1635043057
Baykit,61.67,96.37,35.0,35.0,35.0,95,100,3.86,RU,1635043058
Dakar,14.6937,-17.4441,81.0,81.0,76.0,83,40,5.14,SN,1635043041
